id,name,type,traffic_volume,speed_limit,lanes,latitude,longitude
1,ISLAMIA SCHOOL MACHLI CHOWK GUJRAT Pakistan,Residential,1224,120,4,32.5474,74.002746
2,VILLAGE GILLANWALA GUJRAT Pakistan,Residential,1372,30,5,32.5715,74.165704
3,NEAR ZAIQA BARKERS GUJRAT Pakistan,Residential,2396,50,2,32.609847,74.002405
4,NEAR STAFF GALA GUJRAT Pakistan,Residential,4685,80,3,32.630915,74.103683
5,NEAR RAMTALI CHOWK GUJRAT Pakistan,Highway,2836,120,4,32.671481,74.115827
6,NEAR BISMILLAH CHOWK GUJRAT Pakistan,Rural,1648,30,6,32.547063,74.139328
7,NEAR SHAHEEN CHOWK GUJRAT Pakistan,Rural,4016,40,4,32.522693,74.108355
8,SHAHEEN CHOWK GUJRAT Pakistan,Arterial,1684,80,6,32.567104,74.060374
9,YOUNAS FAN GT RAOD GUJRAT Pakistan,Highway,377,40,5,32.544958,74.109111
10,COURT ROAD NEAR ECS GUJRAT Pakistan,Rural,2457,80,3,32.573631,74.051611
11,HAMDANI CNG NEAR SHAHEEN CHOWK GUJRAT Pakistan,Rural,199,60,4,32.672667,74.058077
12,TRIKHA CHOWK NEAR DAR E ARQAM SCHOOL GUJRAT Pakistan,Arterial,4469,80,3,32.531162,74.129481
13,BEOWALI STOP JALA PUR JATTAN GUJRAT ROAD GUJRAT Pakistan,Residential,347,80,2,32.589181,74.154955
14,DITTAYWAL DINGA ROAD GUJRAT Pakistan,Residential,4075,120,4,32.680352,74.197554
15,SERVICE MORE GT ROAD GUJRAT Pakistan,Arterial,3606,60,6,32.529978,74.031808
16,NEAR RIVER GARDEN HIGHWAY GUJRAT Pakistan,Residential,4855,80,5,32.575275,74.175721
17,NEAR FATEH PUR GUJRAT Pakistan,Rural,4811,80,2,32.509075,74.0712
18,NEAR KFC UNIVERSITY OF LAHORE HIGHWAY GUJRAT Pakistan,Arterial,992,50,5,32.61648,74.031591
19,MUGHAL COLONY GALI NO 5 SHADMAN GUJRAT Pakistan,Arterial,1765,100,6,32.575345,74.134804
20,NEAR NEW SADAR POLICE STATION GUJRAT Pakistan,Residential,3033,80,5,32.533954,74.076924
21,RHC SHADIWAL GUJRAT Pakistan,Arterial,3172,40,6,32.566221,74.14147
22,VILLAGE SYEDANWALI GUJRAT Pakistan,Residential,4913,80,2,32.521154,74.127951
23,CHADDAR STOP GUJRAT Pakistan,Residential,4089,50,6,32.643856,74.044683
24,OVERHEAD BRIDGE DINGA ROAD GUJRAT Pakistan,Rural,4570,80,2,32.573404,74.138533
25,RAJPPT PLAZA GUJRAT Pakistan,Residential,2664,30,2,32.566668,74.058665
26,RHC SHADIWAL GUJRAT Pakistan,Highway,4418,100,5,32.649546,74.161927
27,NEAR RIVER GARDEN HIGHWAY GUJRAT Pakistan,Highway,416,30,3,32.50023,74.010457
28,SAHAB LAKHO GUJRAT Pakistan,Residential,1194,120,5,32.564916,74.019592
29,NEAR NOOR MARQUE  GUJRAT Pakistan,Arterial,4441,60,3,32.525774,74.12488
30,NEAR BABAR HOUSE GORALI GUJRAT Pakistan,Rural,4233,40,5,32.682692,74.197241
31,PUNJAB COLLEGE GUJRAT Pakistan,Highway,1308,80,6,32.560558,74.128795
32,NEAR DHERU GUNA GUJRAT Pakistan,Residential,3039,100,6,32.536728,74.100817
33,RAMTALAI CHOWK GUJRAT Pakistan,Residential,3407,100,2,32.593116,74.192917
34,SERVICE MORE GT ROAD GUJRAT Pakistan,Arterial,3946,30,2,32.611123,74.02334
35,RHC SHADIWAL GUJRAT Pakistan,Rural,1125,30,5,32.634898,74.137065
36,MOH EID GAH GUJRAT Pakistan,Arterial,3399,30,5,32.621406,74.08447
37,SERVICE3 FACTORY GUJRAT Pakistan,Residential,2158,80,5,32.617172,74.12196
38,VILLAGE NASOWAL KHURD PINDI HASSNA ROAD GUJRAT Pakistan,Highway,3801,40,3,32.685833,74.025988
39,JAIL CHOWK GUJRAT Pakistan,Rural,1539,50,6,32.506163,74.195555
40,NEAR SHAH BHOLA STOP JALA PUR JATTAN GUJRAT ROAD GUJRAT Pakistan,Rural,2428,40,4,32.667465,74.13574
41,REHMAN SHAHEED ROAD GUJRAT Pakistan,Rural,4774,40,3,32.600536,74.097843
42,CS 1122 GUJRAT Pakistan,Residential,2113,120,4,32.52737,74.199787
43,NEAR NADRA OFFICE SERVICE MORE GUJRAT Pakistan,Residential,237,40,4,32.511072,74.116674
44,BARSA CNG GT ROAD GUJRAT Pakistan,Highway,2991,30,6,32.626127,74.142154
45,GTS CHOWK GUJRAT Pakistan,Residential,2949,30,3,32.671116,74.090363
46,NEAR AGHA FAN GUJRAT Pakistan,Arterial,3155,30,6,32.535931,74.176042
47,NEAR SABZI MANDI KHARIAN ROAD JALA PUR JATTAN GUJRAT GUJRAT Pakistan,Rural,4755,40,4,32.639481,74.137433
48,NEAR DHERU GUNA GUJRAT Pakistan,Arterial,3588,30,5,32.574302,74.073301
49,RHC SHADIWAL GUJRAT Pakistan,Residential,811,80,6,32.630173,74.177034
50,NEAR SUFI HOTEL GT ROAD GUJRAT Pakistan,Arterial,4255,60,2,32.511015,74.013563
51,SOOK KALAN STOP JALA PUR JATTAN GUJRAT ROAD GUJRAT Pakistan,Arterial,3616,120,2,32.543214,74.115715
52,CHECHIAN STOP DINGA ROAD GUJRAT Pakistan,Arterial,1806,40,3,32.617318,74.100975
53,MOH. FAIZABAD GUJRAT Pakistan,Rural,2394,100,4,32.565654,74.185966
54,GORALA STOP GT ROAD GUJRAT Pakistan,Arterial,1299,60,5,32.630219,74.131886
55,NEAR BASHIR MARRIAGE HALL GT ROAD GUJRAT Pakistan,Rural,4476,60,5,32.5015,74.089404
56,NEAR MAROOF STOP JALA PUR JATTAN GUJRAT ROAD GUJRAT Pakistan,Rural,2480,50,3,32.652372,74.182603
57,CREATIVE HAND FURNITURE GT ROAD GUJRAT Pakistan,Highway,4144,60,2,32.546247,74.129146
58,GTS CHOWK GUJRAT Pakistan,Arterial,2022,40,2,32.534987,74.124113
59,MOHLA KALAN VILLAGE GUJRAT Pakistan,Residential,1057,30,6,32.647932,74.146981
60,NEAR ALEENA CENTER BHIMBER ROAD GUJRAT Pakistan,Highway,2944,50,3,32.539904,74.015043
61,NEAR TMA OFFICE GUJRAT Pakistan,Highway,1449,60,3,32.570689,74.090007
62,NEAR AKHTAR HOTEL GT ROAD GUJRAT Pakistan,Residential,3339,60,5,32.561094,74.143187
63,TAIMOR FAN WALA GALA AREA GATE GUJRAT Pakistan,Residential,297,50,5,32.562668,74.0126
64,SHAHJAHANGIR ROAD GUJRAT Pakistan,Residential,2001,50,3,32.567248,74.100256
65,NEAR EID GAH GUJRAT Pakistan,Residential,172,80,4,32.648401,74.199776
66,NEAR NAWAZ SHARIF PARK GUJRAT Pakistan,Highway,3052,50,6,32.683595,74.090068
67,POLOCE CHOWKI JATTUWAKAL GUJRAT Pakistan,Residential,169,100,4,32.584618,74.191347
68,NEAR BIKLI GHAR SARGODHA ROAD GUJRAT Pakistan,Residential,1865,50,3,32.568192,74.130859
69,NEAR BUTTER MORR SHADIWAL GUJRAT Pakistan,Arterial,4205,80,2,32.630844,74.141183
70,NEAR BASHIR MARRIAGE HALL GT ROAD GUJRAT Pakistan,Rural,123,40,6,32.595986,74.148085
71,NEAR NATHOWAL STIOP BHIMBER ROAD GUJRAT Pakistan,Residential,4694,30,4,32.591214,74.08482
72,SABZI MANDI SHAH JAHANGIR ROAD GUJRAT Pakistan,Rural,1719,40,4,32.532608,74.019961
73,NEAR TARIKHA BRIDGE SHADIWAL ROAD GUJRAT Pakistan,Rural,3332,120,2,32.517027,74.136867
74,NEAR GORALI STOP GUJRAT Pakistan,Rural,3646,40,2,32.532706,74.103638
75,ISLAMIA SCHOOL MACHLI CHOWK GUJRAT Pakistan,Rural,3578,120,4,32.548745,74.198393
76,SARWAR GOLD PLAZA GUJRAT Pakistan,Highway,4606,120,6,32.665449,74.070845
77,AREA GATE GUJRAT Pakistan,Rural,974,100,5,32.531647,74.053125
78,EIDGAH MASJID GUJRAT Pakistan,Rural,4662,80,3,32.627191,74.111312
79,VILLAGE REHMANIA GUJRAT Pakistan,Residential,2925,30,4,32.520355,74.155398
80,RAMTALAI CHOWK GUJRAT Pakistan,Arterial,2167,60,5,32.587642,74.009773
81,BOKEN MORE GUJRAT Pakistan,Highway,2229,80,2,32.605746,74.03452
82,MOHALLAH KALU PURA GUJRAT Pakistan,Rural,1151,120,5,32.63923,74.086114
83,POLICE LINE GUJRAT Pakistan,Highway,756,120,2,32.517818,74.087028
84,VILLAGE GILLANWALA GUJRAT Pakistan,Rural,2028,100,2,32.694881,74.159436
85,NEAR PIPS SCHOOL GUJRAT Pakistan,Highway,4275,50,6,32.574052,74.091266
86,NEAR GTS CHOWK SGD ROAD GUJRAT Pakistan,Arterial,1937,120,6,32.520266,74.029679
87,NEAR EID GAH GT RAOD GUJRAT Pakistan,Highway,952,120,4,32.598221,74.077228
88,PSO PUMP NEAR KATHALA GUJRAT Pakistan,Rural,2363,80,4,32.586246,74.165665
89,JULAHI MOH JALA PUR JATTAN GUJRAT GUJRAT Pakistan,Highway,323,30,4,32.564011,74.183868
90,"NEAR RATI GRID STATION, GUJRAT Pakistan",Rural,938,60,3,32.647825,74.054718
91,GTS CHOWK GUJRAT Pakistan,Highway,671,40,6,32.671046,74.175546
92,"NEAR PUNJAB COLLEGE JALA PUR JATTAN GUJRAT ROAD, GUJRAT Pakistan",Highway,4720,40,2,32.627331,74.146811
93,"VILLAGE SAHANWAL KALAN, GUJRAT Pakistan",Highway,4047,40,4,32.64047,74.132928
94,"CHAK MANJOO JALA PUR JATTAN GUJRAT ROAD,GUJRAT Pakistan",Rural,1105,60,5,32.588338,74.17262
95,"SAIN RAJA PHATAK, GUJRAT Pakistan",Rural,3230,50,2,32.678553,74.015786
96,"JAMNA STOP NEAR SHAHEEN CHOWK, GUJRAT Pakistan",Rural,1557,50,6,32.568435,74.191817
97,"SAIN RAJA PHATAK, GUJRAT Pakistan",Residential,2307,60,6,32.650266,74.027845
98,"NAYIAN WALA QABRISTAAN MOH. SULTAN PURA, GUJRAT Pakistan",Highway,4211,120,6,32.651259,74.038911
99,RHC SHADIWAL GUJRAT Pakistan,Arterial,2727,80,4,32.696013,74.08581
100,GTS CHOWK GUJRAT Pakistan,Rural,4482,80,6,32.540199,74.09924
101,VILAGE NAROWALI GUJRAT Pakistan,Residential,242,30,4,32.610735,74.02499
102,BOLAY CHOWK GUJRAT Pakistan,Highway,1485,60,2,32.650008,74.04779
103,"FAWARA CHOWK, GUJRAT Pakistan",Residential,3420,50,5,32.579596,74.148318
104,NEAR AKHTAR HOTEL GT ROAD GUJRAT Pakistan,Highway,3049,40,5,32.534618,74.136643
105,SERVICE MORR GUJRAT Pakistan,Rural,2925,50,3,32.680561,74.061176
106,DHOOL KHURD DINGA ROAD GUJRAT Pakistan,Rural,4650,100,2,32.523803,74.034419
107,"NEAR SHELL PUMP JALA PUR JATTAN GUJRAT ROAD, GUJRAT Pakistan",Highway,4115,50,6,32.576976,74.142901
108,JAIL CHOWK GUJRAT Pakistan,Arterial,2859,80,6,32.537557,74.096964
109,"VILLAGE KOT QUTAB DIN, GUJRAT Pakistan",Residential,3766,80,2,32.697951,74.142324
110,"NERA AMIN FAN G.T.ROAD, GUJRAT Pakistan",Rural,3374,50,6,32.628449,74.056666
111,MIAN G CNG NEAR SHAHEEN CHOWK GUJRAT Pakistan,Residential,2988,30,3,32.535764,74.039189
112,MOIN UD DIN PUR STOP JALA PUR JATTAN GUJRAT ROAD GUJRAT Pakistan,Arterial,2254,100,6,32.69982,74.178039
113,BHU HARRIAWALA GUJRAT Pakistan,Highway,2191,120,3,32.59771,74.025648
114,NEAR SAMMA STOP GUJRAT Pakistan,Residential,4240,80,2,32.571974,74.120294
115,SHAHABDIWAL STOP DINGA ROAD GUJRAT Pakistan,Residential,2555,50,6,32.530124,74.096476
116,SAEEN RAJA PHATAK GUJRAT Pakistan,Arterial,3858,100,3,32.504687,74.022881
117,DEWNA MANDI GUJRAT Pakistan,Arterial,2285,40,4,32.523828,74.174843
118,NEAR FAWARA CHOWK GUJRAT Pakistan,Highway,2472,80,6,32.673295,74.002286
119,MANGOWAL SHARQI GUJRAT Pakistan,Highway,3332,60,2,32.671287,74.141475
120,UDHOWAL KHURD VILLAGE GUJRAT Pakistan,Rural,1134,50,2,32.601662,74.025489
121,SOHAL KALAN GUJRAT Pakistan,Arterial,1866,100,2,32.506185,74.115598
122,"SAIN RAJA PHATAK, GUJRAT Pakistan",Rural,1890,40,6,32.564411,74.111639
123,SHAH MARKET GUJRAT Pakistan,Arterial,2696,60,2,32.665181,74.142637
124,DERU GUNNA PHATAK NEAR IRFAN AUTO GUJRAT Pakistan,Rural,4165,40,2,32.608302,74.070509
125,GORALA VILLAGE GUJRAT Pakistan,Highway,3048,60,5,32.546436,74.024599
126,NEAR WAHID TRUST HOSPITAL GUJRAT Pakistan,Rural,2793,40,5,32.545371,74.088958
127,GTS CHOWK GUJRAT Pakistan,Rural,4970,30,3,32.578527,74.162503
128,AMIR COLONY GUJRAT Pakistan,Residential,2064,80,5,32.607142,74.03197
129,AKHTAR SHAH COLONY SHADIWAL ROAD GUJRAT Pakistan,Arterial,1800,60,6,32.51478,74.067192
130,MADINA BAZAR NEAR STAFF GALA GUJRAT Pakistan,Highway,3999,80,3,32.502052,74.13844
131,NEAR INAYAT HOSPITAL SARGODHA ROAD GUJRAT Pakistan,Highway,3115,60,4,32.550298,74.064323
132,MASTER QULFI NEAR PSO PUMP GULZAR E MADINA ROAD GUJRAT Pakistan,Rural,4592,80,5,32.669169,74.104223
133,JAMAL PUR SYEDAN GUJRAT Pakistan,Rural,2699,100,6,32.647366,74.183077
134,GILLANWALA PSO PUMP GUJRAT Pakistan,Arterial,896,80,3,32.634203,74.003633
135,"SAIN RAJA PHATAK, GUJRAT Pakistan",Arterial,810,50,5,32.547922,74.12742
136,BAGHDAD COLONY GUJRAT Pakistan,Arterial,152,80,3,32.640393,74.183479
137,NEAR CHILDREN PARK GUJRAT Pakistan,Rural,1613,40,6,32.593826,74.057799
138,NEAR EID GAH MASJID GT ROAD GUJRAT Pakistan,Arterial,812,30,2,32.618689,74.164904
139,CS 1122 GUJRAT Pakistan,Highway,2512,80,2,32.581285,74.012713
140,CS 1122 GUJRAT Pakistan,Arterial,3614,40,6,32.609863,74.163004
141,SHAHBAZ SHAREEF PARK GUJRAT Pakistan,Residential,4019,120,2,32.520626,74.108731
142,NEAR BEOWALI STOP JALA PUR JATTAN GUJRAT ROAD GUJRAT Pakistan,Rural,3970,30,6,32.583138,74.031903
143,MOHALLHA TIBBI GORIAN GUJRAT Pakistan,Rural,2065,120,2,32.533119,74.167121
144,DITTAYWAL DINGA ROAD GUJRAT Pakistan,Rural,4404,30,3,32.527734,74.135096
145,SHAHEEN CHOWK GUJRAT Pakistan,Arterial,4711,100,6,32.651698,74.086904
146,VILLAGE KALRA KALAN GUJRAT Pakistan,Arterial,4816,30,6,32.513632,74.091311
147,FOUR STAR MARRIAGE HALL GUJRAT Pakistan,Residential,650,120,3,32.609026,74.041798
148,JALYANI STOP GUJRAT Pakistan,Highway,3720,50,5,32.59711,74.150367
149,NEAR SARDAR CNG GUJRAT Pakistan,Residential,478,100,6,32.534982,74.138749
150,LIAQAT HOSPITAL SHAHDOLA CHOWKI GUJRAT Pakistan,Highway,2347,60,3,32.504415,74.118562
151,RAILWAY ROAD GUJRAT Pakistan,Residential,4816,100,2,32.669673,74.05593
152,NEAR CHAH TARHING QABRISTAN GUJRAT Pakistan,Arterial,2379,30,6,32.695758,74.128153
153,"ADMORE PUMP , NEAR KULAYWAL GUJRAT Pakistan",Arterial,2988,60,5,32.52942,74.094782
154,NEAR PAKHOWAL VILLAGE BAND ROAD GUJRAT Pakistan,Highway,4919,30,2,32.55412,74.096755
155,NEAR SABZI MANDI SHAH JAHANGIR ROAD GUJRAT Pakistan,Residential,1244,60,3,32.686926,74.034629
156,GAREEB PURA ROAD JAIL CHOWK GUJRAT Pakistan,Residential,4504,100,2,32.622988,74.131311
157,WAPDA HOSPITAL SGD ROAD GUJRAT Pakistan,Residential,712,60,4,32.632456,74.191633
158,MACHLI CHOWK GUJRAT Pakistan,Rural,1185,40,2,32.698989,74.107279
159,SHIEKH PUR JALA PUR JATTAN GUJRAT ROAD GUJRAT Pakistan,Rural,4037,40,5,32.699266,74.047731
160,NEAR SARWAR HOSPITAL RAILWAY ROAD GUJRAT Pakistan,Residential,622,120,4,32.532646,74.071561
161,NEAR NEW GORALA MUSA PUMP GUJRAT Pakistan,Arterial,605,120,3,32.697758,74.11434
162,RAMTALAI CHOWK GUJRAT Pakistan,Highway,674,60,5,32.573675,74.021103
163,KALRA KALAN NEAR GOVT GIRLS SCHOOL GUJRAT Pakistan,Highway,3893,50,5,32.588206,74.198268
164,NEAR CHANNA CHOWK GUJRAT Pakistan,Arterial,2089,100,4,32.54183,74.136831
165,NEAR REST HOUSE JAIL ROAD GUJRAT Pakistan,Rural,3529,50,5,32.624346,74.131425
166,KIPS ACADEMY ALI PURA ROAD GUJRAT Pakistan,Residential,3632,50,2,32.543467,74.071632
167,NEAR KHEWA STOP JALA PUR JATTAN GUJRAT ROAD GUJRAT Pakistan,Residential,3236,80,2,32.640589,74.167082
168,NEAR MALHO KHOKHAR GUJRAT Pakistan,Residential,1200,60,5,32.569864,74.124872
169,SHADIWAL ROAD NEAR SHADABIA INSTITUE GUJRAT Pakistan,Rural,375,40,2,32.590909,74.16691
170,SAHNWAL KALAN GUJRAT Pakistan,Residential,3446,80,3,32.665859,74.150202
171,MADINA BAZAR NEAR STAFF GALA GUJRAT Pakistan,Rural,2008,40,3,32.617627,74.192596
172,SHALIMAR TOWN GUJRAT Pakistan,Residential,2855,100,5,32.680107,74.04713
173,NEAR CHAH TARHING QABRISTAN GUJRAT Pakistan,Residential,1890,120,3,32.619644,74.154677
174,SHADMAN COLONY GUJRAT Pakistan,Highway,1524,40,5,32.544081,74.007444
175,BOLAY COWK JALA PUR JATTAN GUJRAT ROAD GUJRAT Pakistan,Highway,1931,120,5,32.643043,74.133367
176,CS 1122 GUJRAT Pakistan,Rural,605,60,2,32.622752,74.168489
177,MOH ISLAM NAGAR GUJRAT Pakistan,Highway,759,80,5,32.660538,74.013223
178,SERVICE FACTORY GUJRAT Pakistan,Rural,4895,80,3,32.553396,74.017557
179,MOHALLAH MUSLIMABAD GUJRAT Pakistan,Residential,2890,60,5,32.652909,74.032929
180,YOUNAS PETROLEUM GUJRAT Pakistan,Arterial,3790,120,4,32.526343,74.187283
181,VILLAGE GILLANWALA GUJRAT Pakistan,Rural,4299,50,3,32.626729,74.023701
182,NEAR SADAR THANA GUJRAT Pakistan,Rural,619,40,5,32.668822,74.176142
183,VILLAGE CHANDAR JALA PUR JATTAN GUJRAT GUJRAT Pakistan,Rural,2602,80,5,32.664991,74.149255
184,NEAR DHERU GUNA GUJRAT Pakistan,Highway,2259,120,3,32.582573,74.186442
185,NEAR NAYYAR INDUSTRY GUJRAT Pakistan,Arterial,3173,30,5,32.562959,74.184351
186,NEAR GEPCO OFFICE G T ROAD GUJRAT Pakistan,Highway,4200,80,5,32.637934,74.193353
187,NEAR ANSARI CNG HIGHWAY GUJRAT Pakistan,Highway,1374,50,2,32.685127,74.111167
188,GHARI AHMEDABAD GUJRAT Pakistan,Arterial,4670,30,5,32.509056,74.150363
189,MOHLA STOP HIGHWAY GUJRAT Pakistan,Arterial,2031,50,4,32.513818,74.173863
190,NEAR SABZI MANDI JALAL PUR TO KHARIAN ROAD GUJRAT Pakistan,Highway,109,40,3,32.506669,74.044763
191,HUSSSAIN COLONY GUJRAT Pakistan,Arterial,685,60,2,32.626435,74.114705
192,MOHALLA HAYAT PURA SARGODHA ROAD GUJRAT Pakistan,Arterial,1318,80,6,32.686608,74.091719
193,"NEAR SESSION COURT, GUJRAT Pakistan",Rural,1526,60,3,32.548191,74.112956
194,BEOWALI NEAR CHENAB COLLEGE JALA PUR JATTAN GUJRAT ROAD GUJRAT Pakistan,Arterial,526,120,2,32.530576,74.040751
195,NEW MODEL TOWN BHIMBER ROAD GUJRAT Pakistan,Residential,1435,30,3,32.553527,74.008163
196,RAILWAY ROAD GUJRAT Pakistan,Arterial,1168,50,2,32.596644,74.060668
197,EID GAH JALA PUR JATTAN GUJRAT GUJRAT Pakistan,Rural,458,30,5,32.55377,74.170963
198,YOUNAS PETROLEUM GUJRAT Pakistan,Arterial,2153,60,5,32.621826,74.127225
199,SHAH FAISAL GATE GUJRAT Pakistan,Arterial,4948,30,3,32.592721,74.117175
200,CHENAB COLLEGE GUJRAT Pakistan,Highway,2297,50,2,32.634483,74.111598
201,VILLAGE BHADANA FATEH PUR ROAD GUJRAT Pakistan,Rural,1890,40,6,32.564411,74.111639
202,DEONA MANDI GT ROAD GUJRAT Pakistan,Arterial,2696,60,2,32.665181,74.142637
203,MADINA BAZAR NEAR STAFF GALA GUJRAT Pakistan,Rural,4165,40,2,32.608302,74.070509
204,NEAR KANG SAHALI SARGODHA ROAD GUJRAT Pakistan,Highway,3048,60,5,32.546436,74.024599
205,KALRA KALAN NEAR GOVT GIRLS SCHOOL GUJRAT Pakistan,Rural,2793,40,5,32.545371,74.088958
206,BOLAY BRIDGE JALA PUR JATTAN GUJRAT ROAD GUJRAT Pakistan,Rural,4970,30,3,32.578527,74.162503
207,NEAR RAMTALI CHOWK GUJRAT Pakistan,Residential,2064,80,5,32.607142,74.03197
208,SHEIKH PUR MAIN STOP GUJRAT Pakistan,Arterial,1800,60,6,32.51478,74.067192
209,NEAR DR. SALEEM BUTT CLINIC OLD SABZI MANDI GUJRAT Pakistan,Highway,3999,80,3,32.502052,74.13844
210,DAR E ARQAM SCHOOL SHADIWAL ROAD GUJRAT Pakistan,Highway,3115,60,4,32.550298,74.064323
211,NEAR SERVICE MORE REHMAN SHAHEED ROAD GUJRAT Pakistan,Rural,4592,80,5,32.669169,74.104223
212,MOKRIYAN STOP FATEH PUR ROAD GUJRAT Pakistan,Rural,2699,100,6,32.647366,74.183077
213,NEAR UMAR GENERAL STOPE MUGHAL COLONY GUJRAT Pakistan,Rural,1890,40,6,32.564411,74.111639
214,NEAR FAWARA CHOWK GUJRAT Pakistan,Arterial,2696,60,2,32.665181,74.142637
215,NEAR NOOR MARQUE  GUJRAT Pakistan,Rural,4165,40,2,32.608302,74.070509
216,OVERHEAD BRIDGE STAFF GALA GUJRAT Pakistan,Highway,3048,60,5,32.546436,74.024599
217,NEAR ZAHOOR ELAHI PALACE GUJRAT Pakistan,Rural,2793,40,5,32.545371,74.088958
218,HUSSAIN MARRIAGE HALL HIGHWAY GUJRAT Pakistan,Rural,4970,30,3,32.578527,74.162503
219,CHAK BHOLA JALA PUR JATTAN GUJRAT ROAD GUJRAT Pakistan,Residential,2064,80,5,32.607142,74.03197
220,NEAR AKHTAR HOTEL GT ROAD GUJRAT Pakistan,Arterial,1800,60,6,32.51478,74.067192
221,NEAR CHECHIAN STOP DINGA ROAD GUJRAT Pakistan,Highway,3999,80,3,32.502052,74.13844
222,NEAR PSO PUMP SHEIKH SUKHA GUJRAT Pakistan,Highway,3115,60,4,32.550298,74.064323
223,NEAR SUFI HOTEL GT ROAD GUJRAT Pakistan,Rural,4592,80,5,32.669169,74.104223
224,BHIMBER ROAD GUJRAT Pakistan #224,Residential,4391,30,2,32.5730725,74.1005044
225,BHIMBER ROAD GUJRAT Pakistan #225,Rural,3519,40,6,32.5730725,74.1005044
226,CHOWK AREA GUJRAT Pakistan #226,Highway,3418,40,1,32.5730725,74.1005044
227,SERVICE ROAD GUJRAT Pakistan #227,Rural,2715,100,5,32.5730725,74.1005044
228,NEAR PSO PUMP GUJRAT Pakistan #228,Highway,4885,30,4,32.5730725,74.1005044
229,VILLAGE LINK ROAD GUJRAT Pakistan #229,Residential,1439,50,4,32.5730725,74.1005044
230,NEAR BUS STOP GUJRAT Pakistan #230,Residential,3451,50,4,32.6377717,74.1958929
231,CHOWK AREA GUJRAT Pakistan #231,Arterial,4398,50,1,32.5730725,74.1005044
232,BHIMBER ROAD GUJRAT Pakistan #232,Rural,4227,30,1,32.6377717,74.1958929
233,NEAR PSO PUMP GUJRAT Pakistan #233,Highway,1755,100,1,32.5730725,74.1005044
234,DINGA ROAD GUJRAT Pakistan #234,Residential,3281,100,2,32.5730725,74.1005044
235,SERVICE ROAD GUJRAT Pakistan #235,Highway,2034,50,4,32.5615005,74.0806009
236,UNIVERSITY ROAD GUJRAT Pakistan #236,Arterial,2229,40,6,32.6377717,74.1958929
237,DINGA ROAD GUJRAT Pakistan #237,Rural,4067,40,1,32.6377717,74.1958929
238,GT ROAD GUJRAT Pakistan #238,Residential,2111,80,4,32.6377717,74.1958929
239,VILLAGE LINK ROAD GUJRAT Pakistan #239,Arterial,3991,120,4,32.5730725,74.1005044
240,NEAR SCHOOL ROAD GUJRAT Pakistan #240,Arterial,4113,100,4,32.6377717,74.1958929
241,BHIMBER ROAD GUJRAT Pakistan #241,Highway,2009,50,6,32.629583,74.079007
242,NEAR PSO PUMP GUJRAT Pakistan #242,Rural,3405,50,6,32.6377717,74.1958929
243,NEAR SCHOOL ROAD GUJRAT Pakistan #243,Arterial,4560,100,3,32.5640348,74.0575465
244,GT ROAD GUJRAT Pakistan #244,Rural,3931,40,5,32.5615005,74.0806009
245,JALALPUR JATTAN ROAD GUJRAT Pakistan #245,Highway,1330,50,6,32.5615005,74.0806009
246,BHIMBER ROAD GUJRAT Pakistan #246,Residential,5005,30,5,32.5730725,74.1005044
247,UNIVERSITY ROAD GUJRAT Pakistan #247,Arterial,5021,30,4,32.5679042,74.1517651
248,GT ROAD GUJRAT Pakistan #248,Residential,5028,100,2,32.5730725,74.1005044
249,BHIMBER ROAD GUJRAT Pakistan #249,Residential,4486,30,2,32.5640348,74.0575465
250,GT ROAD GUJRAT Pakistan #250,Highway,831,80,1,32.5730725,74.1005044
251,VILLAGE LINK ROAD GUJRAT Pakistan #251,Rural,4990,120,6,32.5730725,74.1005044
252,GT ROAD GUJRAT Pakistan #252,Residential,789,50,5,32.5730725,74.1005044
253,VILLAGE LINK ROAD GUJRAT Pakistan #253,Residential,3021,30,1,32.5730725,74.1005044
254,BHIMBER ROAD GUJRAT Pakistan #254,Residential,3827,30,6,32.5730725,74.1005044
255,JALALPUR JATTAN ROAD GUJRAT Pakistan #255,Highway,1303,60,4,32.5730725,74.1005044
256,CHOWK AREA GUJRAT Pakistan #256,Highway,4793,30,6,32.5730725,74.1005044
257,CHOWK AREA GUJRAT Pakistan #257,Residential,2776,60,5,32.5679042,74.1517651
258,JALALPUR JATTAN ROAD GUJRAT Pakistan #258,Residential,2457,120,4,32.5730725,74.1005044
259,BHIMBER ROAD GUJRAT Pakistan #259,Rural,4000,100,1,32.5730725,74.1005044
260,CHOWK AREA GUJRAT Pakistan #260,Arterial,1774,30,5,32.6377717,74.1958929
261,SERVICE ROAD GUJRAT Pakistan #261,Residential,1074,80,6,32.5730725,74.1005044
262,JALALPUR JATTAN ROAD GUJRAT Pakistan #262,Arterial,4991,80,5,32.5615005,74.0806009
263,BHIMBER ROAD GUJRAT Pakistan #263,Arterial,1597,60,4,32.5615005,74.0806009
264,CHOWK AREA GUJRAT Pakistan #264,Rural,3630,50,1,32.5615005,74.0806009
265,NEAR SCHOOL ROAD GUJRAT Pakistan #265,Residential,978,100,3,32.5730725,74.1005044
266,NEAR BUS STOP GUJRAT Pakistan #266,Residential,4956,60,1,32.5640348,74.0575465
267,NEAR BUS STOP GUJRAT Pakistan #267,Highway,2587,80,2,32.5640348,74.0575465
268,NEAR MARKET GUJRAT Pakistan #268,Residential,1087,80,4,32.5730725,74.1005044
269,VILLAGE LINK ROAD GUJRAT Pakistan #269,Residential,4153,80,6,32.5640348,74.0575465
270,JALALPUR JATTAN ROAD GUJRAT Pakistan #270,Arterial,908,60,1,32.6377717,74.1958929
271,NEAR SCHOOL ROAD GUJRAT Pakistan #271,Arterial,694,80,2,32.6377717,74.1958929
272,JALALPUR JATTAN ROAD GUJRAT Pakistan #272,Arterial,1122,80,4,32.5730725,74.1005044
273,JALALPUR JATTAN ROAD GUJRAT Pakistan #273,Residential,2127,30,3,32.5730725,74.1005044
274,CHOWK AREA GUJRAT Pakistan #274,Arterial,4140,30,5,32.5640348,74.0575465
275,NEAR BUS STOP GUJRAT Pakistan #275,Residential,2414,80,1,32.5730725,74.1005044
276,NEAR MARKET GUJRAT Pakistan #276,Arterial,4877,120,5,32.6377717,74.1958929
277,BHIMBER ROAD GUJRAT Pakistan #277,Highway,2444,30,1,32.5842125,74.1548242
278,SERVICE ROAD GUJRAT Pakistan #278,Residential,5080,100,6,32.6377717,74.1958929
279,NEAR MARKET GUJRAT Pakistan #279,Arterial,838,30,1,32.5615005,74.0806009
280,NEAR BUS STOP GUJRAT Pakistan #280,Residential,2026,40,3,32.5730725,74.1005044
281,NEAR SCHOOL ROAD GUJRAT Pakistan #281,Rural,4589,50,3,32.5730725,74.1005044
282,VILLAGE LINK ROAD GUJRAT Pakistan #282,Highway,3289,30,3,32.5679042,74.1517651
283,NEAR BUS STOP GUJRAT Pakistan #283,Highway,4972,30,5,32.5730725,74.1005044
284,BHIMBER ROAD GUJRAT Pakistan #284,Residential,846,100,4,32.5730725,74.1005044
285,VILLAGE LINK ROAD GUJRAT Pakistan #285,Rural,871,100,4,32.6377717,74.1958929
286,DINGA ROAD GUJRAT Pakistan #286,Residential,1553,40,1,32.5730725,74.1005044
287,BHIMBER ROAD GUJRAT Pakistan #287,Residential,3384,100,2,32.6377717,74.1958929
288,DINGA ROAD GUJRAT Pakistan #288,Residential,780,60,2,32.5730725,74.1005044
289,NEAR PSO PUMP GUJRAT Pakistan #289,Residential,2259,120,6,32.5640348,74.0575465
290,NEAR PSO PUMP GUJRAT Pakistan #290,Rural,1130,80,6,32.5730725,74.1005044
291,CHOWK AREA GUJRAT Pakistan #291,Residential,2260,100,2,32.5730725,74.1005044
292,GT ROAD GUJRAT Pakistan #292,Residential,4399,40,4,32.629583,74.079007
293,BHIMBER ROAD GUJRAT Pakistan #293,Arterial,4831,30,5,32.5730725,74.1005044
294,SERVICE ROAD GUJRAT Pakistan #294,Arterial,2106,30,4,32.5730725,74.1005044
295,NEAR MARKET GUJRAT Pakistan #295,Arterial,4931,100,2,32.5730725,74.1005044
296,BHIMBER ROAD GUJRAT Pakistan #296,Arterial,1812,120,4,32.5730725,74.1005044
297,GT ROAD GUJRAT Pakistan #297,Rural,1087,100,4,32.5730725,74.1005044
298,JALALPUR JATTAN ROAD GUJRAT Pakistan #298,Arterial,1503,120,3,32.5730725,74.1005044
299,NEAR SCHOOL ROAD GUJRAT Pakistan #299,Residential,3211,80,5,32.5730725,74.1005044
300,NEAR BUS STOP GUJRAT Pakistan #300,Residential,3690,50,4,32.5730725,74.1005044
301,JALALPUR JATTAN ROAD GUJRAT Pakistan #301,Residential,4701,40,4,32.6377717,74.1958929
302,NEAR MARKET GUJRAT Pakistan #302,Highway,4825,120,2,32.5730725,74.1005044
303,NEAR MARKET GUJRAT Pakistan #303,Rural,3269,60,5,32.5615005,74.0806009
304,CHOWK AREA GUJRAT Pakistan #304,Residential,2474,40,6,32.5615005,74.0806009
305,CHOWK AREA GUJRAT Pakistan #305,Arterial,3159,80,5,32.6377717,74.1958929
306,NEAR SCHOOL ROAD GUJRAT Pakistan #306,Highway,3181,80,3,32.5730725,74.1005044
307,CHOWK AREA GUJRAT Pakistan #307,Arterial,1420,60,1,32.5730725,74.1005044
308,CHOWK AREA GUJRAT Pakistan #308,Residential,3055,120,1,32.5615005,74.0806009
309,UNIVERSITY ROAD GUJRAT Pakistan #309,Arterial,733,50,5,32.5730725,74.1005044
310,DINGA ROAD GUJRAT Pakistan #310,Residential,4925,30,4,32.5730725,74.1005044
311,NEAR PSO PUMP GUJRAT Pakistan #311,Rural,2741,60,4,32.6377717,74.1958929
312,NEAR BUS STOP GUJRAT Pakistan #312,Residential,3796,50,1,32.629583,74.079007
313,JALALPUR JATTAN ROAD GUJRAT Pakistan #313,Arterial,2521,30,2,32.5730725,74.1005044
314,JALALPUR JATTAN ROAD GUJRAT Pakistan #314,Rural,4860,30,2,32.5730725,74.1005044
315,BHIMBER ROAD GUJRAT Pakistan #315,Arterial,1402,60,6,32.5640348,74.0575465
316,DINGA ROAD GUJRAT Pakistan #316,Residential,2265,40,1,32.5730725,74.1005044
317,JALALPUR JATTAN ROAD GUJRAT Pakistan #317,Rural,4627,100,6,32.5730725,74.1005044
318,BHIMBER ROAD GUJRAT Pakistan #318,Residential,2476,120,3,32.5730725,74.1005044
319,JALALPUR JATTAN ROAD GUJRAT Pakistan #319,Arterial,4258,120,2,32.5730725,74.1005044
320,UNIVERSITY ROAD GUJRAT Pakistan #320,Highway,2760,100,3,32.5730725,74.1005044
321,NEAR MARKET GUJRAT Pakistan #321,Residential,2766,50,3,32.5679042,74.1517651
322,SERVICE ROAD GUJRAT Pakistan #322,Residential,2145,40,6,32.5730725,74.1005044
323,UNIVERSITY ROAD GUJRAT Pakistan #323,Arterial,5040,100,2,32.5730725,74.1005044
324,UNIVERSITY ROAD GUJRAT Pakistan #324,Highway,1553,60,3,32.5730725,74.1005044
325,CHOWK AREA GUJRAT Pakistan #325,Arterial,2404,30,4,32.5615005,74.0806009
326,BHIMBER ROAD GUJRAT Pakistan #326,Residential,5194,100,4,32.5730725,74.1005044
327,NEAR PSO PUMP GUJRAT Pakistan #327,Residential,2388,80,1,32.5730725,74.1005044
328,CHOWK AREA GUJRAT Pakistan #328,Arterial,1463,60,5,32.5730725,74.1005044
329,SERVICE ROAD GUJRAT Pakistan #329,Arterial,4752,100,6,32.5730725,74.1005044
330,NEAR BUS STOP GUJRAT Pakistan #330,Arterial,2491,40,3,32.5730725,74.1005044
331,SERVICE ROAD GUJRAT Pakistan #331,Residential,3930,100,5,32.5730725,74.1005044
332,DINGA ROAD GUJRAT Pakistan #332,Residential,2191,100,3,32.5730725,74.1005044
333,UNIVERSITY ROAD GUJRAT Pakistan #333,Highway,3080,60,4,32.6377717,74.1958929
334,JALALPUR JATTAN ROAD GUJRAT Pakistan #334,Residential,2499,100,1,32.5730725,74.1005044
335,NEAR SCHOOL ROAD GUJRAT Pakistan #335,Rural,2775,40,2,32.5730725,74.1005044
336,GT ROAD GUJRAT Pakistan #336,Residential,1558,120,1,32.6377717,74.1958929
337,JALALPUR JATTAN ROAD GUJRAT Pakistan #337,Residential,4638,40,3,32.5730725,74.1005044
338,DINGA ROAD GUJRAT Pakistan #338,Residential,4880,40,4,32.5730725,74.1005044
339,NEAR BUS STOP GUJRAT Pakistan #339,Arterial,1968,60,3,32.5730725,74.1005044
340,NEAR MARKET GUJRAT Pakistan #340,Arterial,4755,60,2,32.5730725,74.1005044
341,NEAR PSO PUMP GUJRAT Pakistan #341,Highway,1209,100,2,32.5730725,74.1005044
342,CHOWK AREA GUJRAT Pakistan #342,Arterial,2919,30,6,32.5679042,74.1517651
343,NEAR PSO PUMP GUJRAT Pakistan #343,Residential,4693,30,3,32.5730725,74.1005044
344,NEAR SCHOOL ROAD GUJRAT Pakistan #344,Residential,3134,40,6,32.5730725,74.1005044
345,DINGA ROAD GUJRAT Pakistan #345,Rural,4421,60,2,32.5615005,74.0806009
346,DINGA ROAD GUJRAT Pakistan #346,Residential,3524,100,4,32.6377717,74.1958929
347,NEAR PSO PUMP GUJRAT Pakistan #347,Residential,4025,40,4,32.5730725,74.1005044
348,GT ROAD GUJRAT Pakistan #348,Highway,2024,120,4,32.629583,74.079007
349,UNIVERSITY ROAD GUJRAT Pakistan #349,Residential,3326,30,3,32.5730725,74.1005044
350,NEAR SCHOOL ROAD GUJRAT Pakistan #350,Residential,3952,40,5,32.5730725,74.1005044
351,UNIVERSITY ROAD GUJRAT Pakistan #351,Residential,4395,50,5,32.5842125,74.1548242
352,NEAR SCHOOL ROAD GUJRAT Pakistan #352,Residential,3152,120,3,32.5730725,74.1005044
353,NEAR BUS STOP GUJRAT Pakistan #353,Rural,902,80,6,32.5640348,74.0575465
354,SERVICE ROAD GUJRAT Pakistan #354,Residential,4654,80,1,32.5679042,74.1517651
355,DINGA ROAD GUJRAT Pakistan #355,Arterial,2510,40,4,32.5730725,74.1005044
356,NEAR SCHOOL ROAD GUJRAT Pakistan #356,Residential,3519,60,6,32.5730725,74.1005044
357,GT ROAD GUJRAT Pakistan #357,Rural,4621,100,2,32.5730725,74.1005044
358,NEAR SCHOOL ROAD GUJRAT Pakistan #358,Residential,5142,30,6,32.5730725,74.1005044
359,NEAR SCHOOL ROAD GUJRAT Pakistan #359,Arterial,2313,100,4,32.5730725,74.1005044
360,VILLAGE LINK ROAD GUJRAT Pakistan #360,Rural,4952,60,5,32.629583,74.079007
361,UNIVERSITY ROAD GUJRAT Pakistan #361,Residential,4843,120,3,32.5730725,74.1005044
362,DINGA ROAD GUJRAT Pakistan #362,Arterial,3795,120,1,32.6377717,74.1958929
363,VILLAGE LINK ROAD GUJRAT Pakistan #363,Rural,4117,30,1,32.5730725,74.1005044
364,VILLAGE LINK ROAD GUJRAT Pakistan #364,Highway,4989,30,4,32.5730725,74.1005044
365,NEAR SCHOOL ROAD GUJRAT Pakistan #365,Residential,4032,50,2,32.5730725,74.1005044
366,DINGA ROAD GUJRAT Pakistan #366,Residential,4672,120,1,32.6377717,74.1958929
367,SERVICE ROAD GUJRAT Pakistan #367,Residential,4765,60,1,32.5730725,74.1005044
368,SERVICE ROAD GUJRAT Pakistan #368,Rural,2649,100,3,32.5730725,74.1005044
369,GT ROAD GUJRAT Pakistan #369,Rural,3395,80,6,32.6377717,74.1958929
370,NEAR SCHOOL ROAD GUJRAT Pakistan #370,Highway,3170,50,4,32.5615005,74.0806009
371,UNIVERSITY ROAD GUJRAT Pakistan #371,Residential,2905,40,3,32.5640348,74.0575465
372,GT ROAD GUJRAT Pakistan #372,Residential,3263,50,3,32.5730725,74.1005044
373,NEAR PSO PUMP GUJRAT Pakistan #373,Rural,2524,50,1,32.5730725,74.1005044
374,NEAR MARKET GUJRAT Pakistan #374,Residential,2438,120,4,32.5730725,74.1005044
375,NEAR MARKET GUJRAT Pakistan #375,Highway,3726,50,6,32.5730725,74.1005044
376,NEAR SCHOOL ROAD GUJRAT Pakistan #376,Highway,4593,40,4,32.5730725,74.1005044
377,NEAR PSO PUMP GUJRAT Pakistan #377,Arterial,4605,30,2,32.5730725,74.1005044
378,NEAR SCHOOL ROAD GUJRAT Pakistan #378,Highway,4905,120,4,32.5730725,74.1005044
379,BHIMBER ROAD GUJRAT Pakistan #379,Arterial,4893,100,5,32.5730725,74.1005044
380,SERVICE ROAD GUJRAT Pakistan #380,Residential,3531,40,5,32.5730725,74.1005044
381,GT ROAD GUJRAT Pakistan #381,Residential,3116,100,2,32.5730725,74.1005044
382,NEAR MARKET GUJRAT Pakistan #382,Arterial,1185,40,4,32.5730725,74.1005044
383,CHOWK AREA GUJRAT Pakistan #383,Residential,1194,50,5,32.6377717,74.1958929
384,DINGA ROAD GUJRAT Pakistan #384,Arterial,923,40,3,32.5730725,74.1005044
385,BHIMBER ROAD GUJRAT Pakistan #385,Rural,2860,40,1,32.5730725,74.1005044
386,NEAR PSO PUMP GUJRAT Pakistan #386,Rural,4390,30,6,32.5730725,74.1005044
387,JALALPUR JATTAN ROAD GUJRAT Pakistan #387,Arterial,2273,40,2,32.5730725,74.1005044
388,SERVICE ROAD GUJRAT Pakistan #388,Highway,3553,30,4,32.5730725,74.1005044
389,NEAR BUS STOP GUJRAT Pakistan #389,Residential,2597,50,6,32.5640348,74.0575465
390,SERVICE ROAD GUJRAT Pakistan #390,Residential,1071,80,1,32.5730725,74.1005044
391,NEAR PSO PUMP GUJRAT Pakistan #391,Arterial,2112,30,2,32.5730725,74.1005044
392,UNIVERSITY ROAD GUJRAT Pakistan #392,Highway,2620,50,6,32.5615005,74.0806009
393,NEAR MARKET GUJRAT Pakistan #393,Highway,1738,120,6,32.5730725,74.1005044
394,UNIVERSITY ROAD GUJRAT Pakistan #394,Rural,2651,60,1,32.5730725,74.1005044
395,DINGA ROAD GUJRAT Pakistan #395,Arterial,1847,100,2,32.6377717,74.1958929
396,NEAR PSO PUMP GUJRAT Pakistan #396,Arterial,2959,40,5,32.5615005,74.0806009
397,NEAR BUS STOP GUJRAT Pakistan #397,Residential,3561,120,2,32.5730725,74.1005044
398,SERVICE ROAD GUJRAT Pakistan #398,Residential,1163,40,1,32.5615005,74.0806009
399,NEAR SCHOOL ROAD GUJRAT Pakistan #399,Rural,4468,100,4,32.5730725,74.1005044
400,VILLAGE LINK ROAD GUJRAT Pakistan #400,Residential,929,30,1,32.5730725,74.1005044
401,BHIMBER ROAD GUJRAT Pakistan #401,Arterial,3059,50,2,32.5730725,74.1005044
402,VILLAGE LINK ROAD GUJRAT Pakistan #402,Rural,4430,120,5,32.5730725,74.1005044
403,BHIMBER ROAD GUJRAT Pakistan #403,Highway,2226,80,3,32.5730725,74.1005044
404,UNIVERSITY ROAD GUJRAT Pakistan #404,Arterial,1078,30,3,32.5730725,74.1005044
405,SERVICE ROAD GUJRAT Pakistan #405,Residential,2946,40,6,32.5730725,74.1005044
406,SERVICE ROAD GUJRAT Pakistan #406,Arterial,2868,100,3,32.5730725,74.1005044
407,VILLAGE LINK ROAD GUJRAT Pakistan #407,Highway,1803,30,5,32.5730725,74.1005044
408,NEAR BUS STOP GUJRAT Pakistan #408,Residential,1341,80,1,32.629583,74.079007
409,NEAR PSO PUMP GUJRAT Pakistan #409,Residential,2867,30,1,32.5730725,74.1005044
410,NEAR BUS STOP GUJRAT Pakistan #410,Rural,2321,120,5,32.5730725,74.1005044
411,BHIMBER ROAD GUJRAT Pakistan #411,Arterial,768,120,2,32.5730725,74.1005044
412,NEAR MARKET GUJRAT Pakistan #412,Arterial,715,100,1,32.5730725,74.1005044
413,NEAR MARKET GUJRAT Pakistan #413,Residential,3776,40,6,32.5730725,74.1005044
414,NEAR SCHOOL ROAD GUJRAT Pakistan #414,Arterial,3288,40,6,32.5730725,74.1005044
415,CHOWK AREA GUJRAT Pakistan #415,Arterial,3207,40,1,32.5730725,74.1005044
416,JALALPUR JATTAN ROAD GUJRAT Pakistan #416,Highway,1596,100,4,32.5730725,74.1005044
417,NEAR MARKET GUJRAT Pakistan #417,Highway,1464,120,3,32.5730725,74.1005044
418,NEAR BUS STOP GUJRAT Pakistan #418,Rural,2350,120,5,32.5730725,74.1005044
419,DINGA ROAD GUJRAT Pakistan #419,Highway,1691,80,4,32.5730725,74.1005044
420,NEAR SCHOOL ROAD GUJRAT Pakistan #420,Residential,4483,80,6,32.5730725,74.1005044
421,VILLAGE LINK ROAD GUJRAT Pakistan #421,Rural,2945,50,2,32.5730725,74.1005044
422,DINGA ROAD GUJRAT Pakistan #422,Rural,2966,120,4,32.5730725,74.1005044
423,VILLAGE LINK ROAD GUJRAT Pakistan #423,Highway,2826,100,4,32.5730725,74.1005044
424,DINGA ROAD GUJRAT Pakistan #424,Arterial,686,50,2,32.6377717,74.1958929
425,SERVICE ROAD GUJRAT Pakistan #425,Rural,2518,100,2,32.5730725,74.1005044
426,NEAR BUS STOP GUJRAT Pakistan #426,Arterial,3237,60,4,32.5842125,74.1548242
427,NEAR SCHOOL ROAD GUJRAT Pakistan #427,Arterial,2100,100,5,32.5615005,74.0806009
428,NEAR PSO PUMP GUJRAT Pakistan #428,Residential,4465,60,6,32.6377717,74.1958929
429,SERVICE ROAD GUJRAT Pakistan #429,Highway,2043,60,4,32.5730725,74.1005044
430,SERVICE ROAD GUJRAT Pakistan #430,Residential,2704,100,1,32.5730725,74.1005044
431,NEAR PSO PUMP GUJRAT Pakistan #431,Residential,1018,120,4,32.5730725,74.1005044
432,GT ROAD GUJRAT Pakistan #432,Rural,2966,100,3,32.5730725,74.1005044
433,NEAR SCHOOL ROAD GUJRAT Pakistan #433,Rural,3219,40,4,32.5730725,74.1005044
434,NEAR PSO PUMP GUJRAT Pakistan #434,Arterial,3483,120,2,32.5615005,74.0806009
435,NEAR BUS STOP GUJRAT Pakistan #435,Rural,1572,120,1,32.5730725,74.1005044
436,JALALPUR JATTAN ROAD GUJRAT Pakistan #436,Arterial,4258,100,3,32.5615005,74.0806009
437,CHOWK AREA GUJRAT Pakistan #437,Residential,1144,40,3,32.5842125,74.1548242
438,UNIVERSITY ROAD GUJRAT Pakistan #438,Highway,1357,120,1,32.5842125,74.1548242
439,JALALPUR JATTAN ROAD GUJRAT Pakistan #439,Highway,4963,80,1,32.5730725,74.1005044
440,BHIMBER ROAD GUJRAT Pakistan #440,Rural,1003,40,2,32.5730725,74.1005044
441,GT ROAD GUJRAT Pakistan #441,Residential,4655,80,2,32.5730725,74.1005044
442,NEAR PSO PUMP GUJRAT Pakistan #442,Arterial,1689,80,4,32.5730725,74.1005044
443,NEAR SCHOOL ROAD GUJRAT Pakistan #443,Arterial,1420,100,1,32.5730725,74.1005044
444,NEAR MARKET GUJRAT Pakistan #444,Rural,3755,60,2,32.5615005,74.0806009
445,BHIMBER ROAD GUJRAT Pakistan #445,Residential,3027,40,3,32.6377717,74.1958929
446,GT ROAD GUJRAT Pakistan #446,Arterial,2030,80,4,32.5615005,74.0806009
447,DINGA ROAD GUJRAT Pakistan #447,Residential,2051,100,5,32.5730725,74.1005044
448,NEAR SCHOOL ROAD GUJRAT Pakistan #448,Residential,2386,80,4,32.5730725,74.1005044
449,SERVICE ROAD GUJRAT Pakistan #449,Arterial,4523,120,6,32.5730725,74.1005044
450,JALALPUR JATTAN ROAD GUJRAT Pakistan #450,Residential,3252,40,4,32.5730725,74.1005044
451,NEAR MARKET GUJRAT Pakistan #451,Highway,2353,40,2,32.5730725,74.1005044
452,DINGA ROAD GUJRAT Pakistan #452,Arterial,1886,100,1,32.5730725,74.1005044
453,VILLAGE LINK ROAD GUJRAT Pakistan #453,Rural,4799,50,6,32.5730725,74.1005044
454,CHOWK AREA GUJRAT Pakistan #454,Residential,988,120,3,32.5679042,74.1517651
455,NEAR BUS STOP GUJRAT Pakistan #455,Arterial,3358,100,3,32.5730725,74.1005044
456,SERVICE ROAD GUJRAT Pakistan #456,Highway,4711,80,4,32.5730725,74.1005044
457,BHIMBER ROAD GUJRAT Pakistan #457,Residential,1337,120,5,32.5730725,74.1005044
458,CHOWK AREA GUJRAT Pakistan #458,Rural,3882,100,1,32.5730725,74.1005044
459,UNIVERSITY ROAD GUJRAT Pakistan #459,Rural,5016,50,1,32.5730725,74.1005044
460,NEAR PSO PUMP GUJRAT Pakistan #460,Rural,875,60,2,32.5730725,74.1005044
461,NEAR PSO PUMP GUJRAT Pakistan #461,Arterial,3171,60,3,32.5730725,74.1005044
462,DINGA ROAD GUJRAT Pakistan #462,Residential,2553,50,6,32.5730725,74.1005044
463,GT ROAD GUJRAT Pakistan #463,Highway,3476,80,5,32.5730725,74.1005044
464,BHIMBER ROAD GUJRAT Pakistan #464,Rural,3007,50,1,32.5730725,74.1005044
465,BHIMBER ROAD GUJRAT Pakistan #465,Highway,727,100,5,32.5730725,74.1005044
466,NEAR PSO PUMP GUJRAT Pakistan #466,Residential,2903,60,5,32.5730725,74.1005044
467,NEAR MARKET GUJRAT Pakistan #467,Arterial,1109,30,2,32.5615005,74.0806009
468,BHIMBER ROAD GUJRAT Pakistan #468,Residential,4016,100,4,32.5730725,74.1005044
469,NEAR BUS STOP GUJRAT Pakistan #469,Residential,823,120,1,32.5842125,74.1548242
470,JALALPUR JATTAN ROAD GUJRAT Pakistan #470,Residential,2135,60,1,32.5640348,74.0575465
471,UNIVERSITY ROAD GUJRAT Pakistan #471,Residential,2553,100,2,32.5730725,74.1005044
472,CHOWK AREA GUJRAT Pakistan #472,Residential,2504,120,4,32.5730725,74.1005044
473,NEAR BUS STOP GUJRAT Pakistan #473,Residential,1883,100,3,32.5679042,74.1517651
474,VILLAGE LINK ROAD GUJRAT Pakistan #474,Residential,4326,80,2,32.5730725,74.1005044
475,NEAR MARKET GUJRAT Pakistan #475,Residential,2438,80,5,32.5615005,74.0806009
476,BHIMBER ROAD GUJRAT Pakistan #476,Arterial,3475,120,2,32.5730725,74.1005044
477,UNIVERSITY ROAD GUJRAT Pakistan #477,Arterial,2055,100,3,32.5730725,74.1005044
478,CHOWK AREA GUJRAT Pakistan #478,Highway,4632,100,5,32.5730725,74.1005044
479,DINGA ROAD GUJRAT Pakistan #479,Highway,1139,50,2,32.5615005,74.0806009
480,NEAR SCHOOL ROAD GUJRAT Pakistan #480,Arterial,897,40,2,32.5730725,74.1005044
481,SERVICE ROAD GUJRAT Pakistan #481,Residential,3914,120,5,32.5730725,74.1005044
482,VILLAGE LINK ROAD GUJRAT Pakistan #482,Rural,5050,30,5,32.5730725,74.1005044
483,NEAR PSO PUMP GUJRAT Pakistan #483,Residential,3732,120,1,32.5730725,74.1005044
484,CHOWK AREA GUJRAT Pakistan #484,Residential,3890,120,1,32.6377717,74.1958929
485,UNIVERSITY ROAD GUJRAT Pakistan #485,Arterial,2315,50,4,32.5730725,74.1005044
486,GT ROAD GUJRAT Pakistan #486,Highway,808,40,6,32.6377717,74.1958929
487,GT ROAD GUJRAT Pakistan #487,Residential,1607,120,4,32.5730725,74.1005044
488,CHOWK AREA GUJRAT Pakistan #488,Arterial,790,120,3,32.5730725,74.1005044
489,NEAR SCHOOL ROAD GUJRAT Pakistan #489,Residential,3590,30,3,32.5730725,74.1005044
490,NEAR SCHOOL ROAD GUJRAT Pakistan #490,Highway,4775,80,2,32.629583,74.079007
491,NEAR MARKET GUJRAT Pakistan #491,Rural,4092,120,4,32.5730725,74.1005044
492,NEAR BUS STOP GUJRAT Pakistan #492,Arterial,1930,50,1,32.5730725,74.1005044
493,NEAR BUS STOP GUJRAT Pakistan #493,Rural,2344,50,5,32.5730725,74.1005044
494,DINGA ROAD GUJRAT Pakistan #494,Rural,4704,80,1,32.5730725,74.1005044
495,DINGA ROAD GUJRAT Pakistan #495,Rural,1883,120,5,32.5730725,74.1005044
496,JALALPUR JATTAN ROAD GUJRAT Pakistan #496,Arterial,1278,80,5,32.5730725,74.1005044
497,SERVICE ROAD GUJRAT Pakistan #497,Rural,1289,40,1,32.5730725,74.1005044
498,NEAR SCHOOL ROAD GUJRAT Pakistan #498,Arterial,903,40,4,32.5640348,74.0575465
499,GT ROAD GUJRAT Pakistan #499,Residential,2573,50,2,32.5730725,74.1005044
500,NEAR SCHOOL ROAD GUJRAT Pakistan #500,Rural,3267,30,3,32.5730725,74.1005044
501,BHIMBER ROAD GUJRAT Pakistan #501,Highway,5068,120,3,32.6377717,74.1958929
502,NEAR MARKET GUJRAT Pakistan #502,Highway,4605,100,4,32.5730725,74.1005044
503,NEAR MARKET GUJRAT Pakistan #503,Highway,4470,40,4,32.6377717,74.1958929
504,SERVICE ROAD GUJRAT Pakistan #504,Highway,1422,60,5,32.5730725,74.1005044
505,NEAR PSO PUMP GUJRAT Pakistan #505,Arterial,3774,60,4,32.5730725,74.1005044
506,DINGA ROAD GUJRAT Pakistan #506,Arterial,2344,100,1,32.5730725,74.1005044
507,JALALPUR JATTAN ROAD GUJRAT Pakistan #507,Residential,4490,100,4,32.5730725,74.1005044
508,GT ROAD GUJRAT Pakistan #508,Arterial,4659,60,3,32.5730725,74.1005044
509,GT ROAD GUJRAT Pakistan #509,Residential,4315,60,4,32.5730725,74.1005044
510,VILLAGE LINK ROAD GUJRAT Pakistan #510,Arterial,3260,100,4,32.6377717,74.1958929
511,NEAR PSO PUMP GUJRAT Pakistan #511,Highway,4654,80,5,32.5730725,74.1005044
512,VILLAGE LINK ROAD GUJRAT Pakistan #512,Residential,4241,50,1,32.5730725,74.1005044
513,NEAR PSO PUMP GUJRAT Pakistan #513,Residential,4486,50,5,32.5730725,74.1005044
514,GT ROAD GUJRAT Pakistan #514,Arterial,3030,80,5,32.5615005,74.0806009
515,NEAR BUS STOP GUJRAT Pakistan #515,Residential,3395,80,5,32.5730725,74.1005044
516,SERVICE ROAD GUJRAT Pakistan #516,Residential,3114,40,3,32.6377717,74.1958929
517,VILLAGE LINK ROAD GUJRAT Pakistan #517,Residential,1945,120,6,32.5730725,74.1005044
518,JALALPUR JATTAN ROAD GUJRAT Pakistan #518,Arterial,4541,100,5,32.5730725,74.1005044
519,DINGA ROAD GUJRAT Pakistan #519,Arterial,4537,60,5,32.5640348,74.0575465
520,SERVICE ROAD GUJRAT Pakistan #520,Highway,1234,120,5,32.5730725,74.1005044
521,NEAR MARKET GUJRAT Pakistan #521,Residential,3099,60,6,32.5730725,74.1005044
522,VILLAGE LINK ROAD GUJRAT Pakistan #522,Residential,2960,80,1,32.5730725,74.1005044
523,SERVICE ROAD GUJRAT Pakistan #523,Arterial,3888,60,6,32.5730725,74.1005044
524,JALALPUR JATTAN ROAD GUJRAT Pakistan #524,Arterial,4212,50,5,32.5730725,74.1005044
525,VILLAGE LINK ROAD GUJRAT Pakistan #525,Residential,2488,80,4,32.5730725,74.1005044
526,UNIVERSITY ROAD GUJRAT Pakistan #526,Rural,4830,40,5,32.6377717,74.1958929
527,SERVICE ROAD GUJRAT Pakistan #527,Residential,3243,40,1,32.5640348,74.0575465
528,NEAR SCHOOL ROAD GUJRAT Pakistan #528,Residential,1410,60,2,32.629583,74.079007
529,GT ROAD GUJRAT Pakistan #529,Arterial,4712,80,4,32.5730725,74.1005044
530,VILLAGE LINK ROAD GUJRAT Pakistan #530,Residential,1851,40,4,32.5730725,74.1005044
531,GT ROAD GUJRAT Pakistan #531,Residential,4483,100,3,32.5730725,74.1005044
532,GT ROAD GUJRAT Pakistan #532,Residential,1157,120,1,32.5730725,74.1005044
533,JALALPUR JATTAN ROAD GUJRAT Pakistan #533,Arterial,2391,40,2,32.5730725,74.1005044
534,GT ROAD GUJRAT Pakistan #534,Residential,1206,40,6,32.5640348,74.0575465
535,SERVICE ROAD GUJRAT Pakistan #535,Residential,2088,50,2,32.5730725,74.1005044
536,GT ROAD GUJRAT Pakistan #536,Rural,787,40,5,32.6377717,74.1958929
537,GT ROAD GUJRAT Pakistan #537,Arterial,3420,100,4,32.5730725,74.1005044
538,BHIMBER ROAD GUJRAT Pakistan #538,Arterial,1414,120,1,32.5730725,74.1005044
539,GT ROAD GUJRAT Pakistan #539,Highway,3336,60,4,32.5730725,74.1005044
540,NEAR MARKET GUJRAT Pakistan #540,Residential,2477,100,2,32.5730725,74.1005044
541,BHIMBER ROAD GUJRAT Pakistan #541,Residential,1786,40,4,32.5730725,74.1005044
542,CHOWK AREA GUJRAT Pakistan #542,Rural,4885,60,2,32.6377717,74.1958929
543,BHIMBER ROAD GUJRAT Pakistan #543,Highway,4865,60,5,32.5615005,74.0806009
544,VILLAGE LINK ROAD GUJRAT Pakistan #544,Highway,750,50,4,32.5730725,74.1005044
545,DINGA ROAD GUJRAT Pakistan #545,Arterial,4750,60,5,32.5730725,74.1005044
546,UNIVERSITY ROAD GUJRAT Pakistan #546,Arterial,3913,120,1,32.5730725,74.1005044
547,GT ROAD GUJRAT Pakistan #547,Highway,1503,60,6,32.5615005,74.0806009
548,UNIVERSITY ROAD GUJRAT Pakistan #548,Highway,4328,100,2,32.5730725,74.1005044
549,CHOWK AREA GUJRAT Pakistan #549,Residential,4006,30,6,32.5730725,74.1005044
550,UNIVERSITY ROAD GUJRAT Pakistan #550,Residential,1671,80,5,32.5730725,74.1005044
551,UNIVERSITY ROAD GUJRAT Pakistan #551,Highway,1701,100,3,32.6377717,74.1958929
552,BHIMBER ROAD GUJRAT Pakistan #552,Rural,3016,100,3,32.5730725,74.1005044
553,GT ROAD GUJRAT Pakistan #553,Highway,4615,40,1,32.6377717,74.1958929
554,CHOWK AREA GUJRAT Pakistan #554,Highway,3364,80,6,32.5615005,74.0806009
555,VILLAGE LINK ROAD GUJRAT Pakistan #555,Highway,1136,60,1,32.5730725,74.1005044
556,JALALPUR JATTAN ROAD GUJRAT Pakistan #556,Residential,5033,120,1,32.5730725,74.1005044
557,NEAR BUS STOP GUJRAT Pakistan #557,Residential,1601,30,5,32.5730725,74.1005044
558,SERVICE ROAD GUJRAT Pakistan #558,Residential,4834,40,1,32.5730725,74.1005044
559,CHOWK AREA GUJRAT Pakistan #559,Rural,3212,120,3,32.5615005,74.0806009
560,NEAR BUS STOP GUJRAT Pakistan #560,Arterial,2831,30,5,32.6377717,74.1958929
561,VILLAGE LINK ROAD GUJRAT Pakistan #561,Arterial,5010,80,2,32.5730725,74.1005044
562,VILLAGE LINK ROAD GUJRAT Pakistan #562,Arterial,3262,100,4,32.5640348,74.0575465
563,CHOWK AREA GUJRAT Pakistan #563,Arterial,1755,50,5,32.5615005,74.0806009
564,NEAR SCHOOL ROAD GUJRAT Pakistan #564,Rural,3248,100,6,32.5730725,74.1005044
565,NEAR MARKET GUJRAT Pakistan #565,Residential,1912,50,1,32.5730725,74.1005044
566,VILLAGE LINK ROAD GUJRAT Pakistan #566,Rural,5159,40,2,32.5730725,74.1005044
567,DINGA ROAD GUJRAT Pakistan #567,Arterial,3504,50,3,32.5842125,74.1548242
568,SERVICE ROAD GUJRAT Pakistan #568,Arterial,4660,100,2,32.5730725,74.1005044
569,NEAR SCHOOL ROAD GUJRAT Pakistan #569,Residential,2977,30,1,32.5730725,74.1005044
570,BHIMBER ROAD GUJRAT Pakistan #570,Residential,3152,50,6,32.5730725,74.1005044
571,NEAR SCHOOL ROAD GUJRAT Pakistan #571,Highway,4790,120,2,32.5730725,74.1005044
572,UNIVERSITY ROAD GUJRAT Pakistan #572,Residential,3320,120,3,32.5730725,74.1005044
573,GT ROAD GUJRAT Pakistan #573,Rural,2290,80,4,32.5730725,74.1005044
574,CHOWK AREA GUJRAT Pakistan #574,Highway,2945,120,2,32.5730725,74.1005044
575,SERVICE ROAD GUJRAT Pakistan #575,Highway,3642,30,2,32.5679042,74.1517651
576,CHOWK AREA GUJRAT Pakistan #576,Arterial,4043,80,2,32.5730725,74.1005044
577,NEAR SCHOOL ROAD GUJRAT Pakistan #577,Highway,3072,40,5,32.5730725,74.1005044
578,DINGA ROAD GUJRAT Pakistan #578,Arterial,4217,40,6,32.5730725,74.1005044
579,NEAR SCHOOL ROAD GUJRAT Pakistan #579,Residential,4345,100,5,32.5730725,74.1005044
580,SERVICE ROAD GUJRAT Pakistan #580,Residential,5179,50,5,32.5730725,74.1005044
581,VILLAGE LINK ROAD GUJRAT Pakistan #581,Highway,3446,50,4,32.5730725,74.1005044
582,NEAR SCHOOL ROAD GUJRAT Pakistan #582,Residential,1938,40,4,32.5730725,74.1005044
583,CHOWK AREA GUJRAT Pakistan #583,Highway,4983,120,6,32.6377717,74.1958929
584,SERVICE ROAD GUJRAT Pakistan #584,Arterial,2229,50,5,32.5615005,74.0806009
585,NEAR BUS STOP GUJRAT Pakistan #585,Residential,3211,40,6,32.5730725,74.1005044
586,JALALPUR JATTAN ROAD GUJRAT Pakistan #586,Arterial,4082,100,1,32.629583,74.079007
587,DINGA ROAD GUJRAT Pakistan #587,Arterial,2652,40,2,32.5842125,74.1548242
588,GT ROAD GUJRAT Pakistan #588,Rural,5154,100,2,32.5730725,74.1005044
589,NEAR SCHOOL ROAD GUJRAT Pakistan #589,Highway,1662,120,3,32.5615005,74.0806009
590,NEAR SCHOOL ROAD GUJRAT Pakistan #590,Highway,4614,120,5,32.5730725,74.1005044
591,NEAR MARKET GUJRAT Pakistan #591,Arterial,1381,60,1,32.5730725,74.1005044
592,BHIMBER ROAD GUJRAT Pakistan #592,Residential,2480,120,4,32.5730725,74.1005044
593,DINGA ROAD GUJRAT Pakistan #593,Residential,3828,40,2,32.5730725,74.1005044
594,CHOWK AREA GUJRAT Pakistan #594,Arterial,1430,60,2,32.5730725,74.1005044
595,NEAR PSO PUMP GUJRAT Pakistan #595,Rural,3327,50,6,32.5730725,74.1005044
596,NEAR PSO PUMP GUJRAT Pakistan #596,Arterial,4245,80,2,32.5730725,74.1005044
597,VILLAGE LINK ROAD GUJRAT Pakistan #597,Residential,5043,50,3,32.5730725,74.1005044
598,CHOWK AREA GUJRAT Pakistan #598,Residential,1024,80,4,32.5730725,74.1005044
599,GT ROAD GUJRAT Pakistan #599,Residential,2009,100,2,32.5730725,74.1005044
600,NEAR PSO PUMP GUJRAT Pakistan #600,Rural,4655,50,1,32.5640348,74.0575465
601,NEAR BUS STOP GUJRAT Pakistan #601,Highway,1695,120,3,32.5730725,74.1005044
602,UNIVERSITY ROAD GUJRAT Pakistan #602,Residential,1579,40,5,32.5730725,74.1005044
603,GT ROAD GUJRAT Pakistan #603,Arterial,4189,40,4,32.5730725,74.1005044
604,NEAR SCHOOL ROAD GUJRAT Pakistan #604,Arterial,3154,30,2,32.5730725,74.1005044
605,UNIVERSITY ROAD GUJRAT Pakistan #605,Rural,2597,40,4,32.5615005,74.0806009
606,NEAR SCHOOL ROAD GUJRAT Pakistan #606,Highway,2684,50,3,32.5615005,74.0806009
607,VILLAGE LINK ROAD GUJRAT Pakistan #607,Highway,1395,50,2,32.5615005,74.0806009
608,GT ROAD GUJRAT Pakistan #608,Rural,2756,120,5,32.5730725,74.1005044
609,NEAR MARKET GUJRAT Pakistan #609,Highway,1663,100,5,32.6377717,74.1958929
610,JALALPUR JATTAN ROAD GUJRAT Pakistan #610,Residential,2112,50,4,32.5730725,74.1005044
611,NEAR PSO PUMP GUJRAT Pakistan #611,Highway,3315,80,5,32.5516352,74.0706787
612,DINGA ROAD GUJRAT Pakistan #612,Rural,4485,80,3,32.5808474,74.0942488
613,BHIMBER ROAD GUJRAT Pakistan #613,Arterial,3705,30,2,32.5883822,74.0567479
614,GT ROAD GUJRAT Pakistan #614,Highway,5018,40,5,32.6356051,74.0094471
615,NEAR PSO PUMP GUJRAT Pakistan #615,Arterial,3987,30,4,32.5754138,74.0638213
616,SERVICE ROAD GUJRAT Pakistan #616,Arterial,3037,40,4,32.5654829,74.0753995
617,JALALPUR JATTAN ROAD GUJRAT Pakistan #617,Rural,2832,60,1,32.5954494,74.0446875
618,NEAR MARKET GUJRAT Pakistan #618,Arterial,2496,40,4,32.5767457,74.0895814
619,CHOWK AREA GUJRAT Pakistan #619,Rural,4338,60,3,32.6327452,74.0053154
620,GT ROAD GUJRAT Pakistan #620,Highway,1139,120,1,32.6284408,74.2332458
621,UNIVERSITY ROAD GUJRAT Pakistan #621,Rural,1867,80,3,32.5730725,74.1005044
622,JALALPUR JATTAN ROAD GUJRAT Pakistan #622,Residential,3310,60,6,32.5640348,74.0575465
623,NEAR SCHOOL ROAD GUJRAT Pakistan #623,Arterial,4959,40,6,32.5843073,74.0764902
624,CHOWK AREA GUJRAT Pakistan #624,Residential,4853,50,3,32.5119798,74.0329499
625,CHOWK AREA GUJRAT Pakistan #625,Residential,1337,100,3,32.5730725,74.1005044
626,NEAR SCHOOL ROAD GUJRAT Pakistan #626,Highway,5198,30,6,32.5577226,74.0837469
627,GT ROAD GUJRAT Pakistan #627,Highway,2460,60,1,32.5920665,74.0806389
628,BHIMBER ROAD GUJRAT Pakistan #628,Arterial,1144,40,2,32.6708206,74.0837749
629,GT ROAD GUJRAT Pakistan #629,Residential,2978,50,2,32.5859774,74.0657637
630,UNIVERSITY ROAD GUJRAT Pakistan #630,Highway,4336,30,5,32.5624664,74.0644355
631,VILLAGE LINK ROAD GUJRAT Pakistan #631,Residential,1052,120,3,32.6327678,74.1882551
632,NEAR MARKET GUJRAT Pakistan #632,Arterial,5091,100,1,32.6209735,74.0788898
633,BHIMBER ROAD GUJRAT Pakistan #633,Arterial,3595,30,6,32.5600873,74.0828027
634,VILLAGE LINK ROAD GUJRAT Pakistan #634,Arterial,1319,40,4,32.5690734,74.072083
635,GT ROAD GUJRAT Pakistan #635,Arterial,1089,120,2,32.5809,74.05884
636,NEAR PSO PUMP GUJRAT Pakistan #636,Residential,3343,100,5,32.5730725,74.1005044
637,UNIVERSITY ROAD GUJRAT Pakistan #637,Residential,3678,100,3,32.5690734,74.072083
638,NEAR MARKET GUJRAT Pakistan #638,Residential,1160,50,5,32.6209735,74.0788898
639,JALALPUR JATTAN ROAD GUJRAT Pakistan #639,Arterial,1751,120,6,32.4886759,74.0911437
640,NEAR PSO PUMP GUJRAT Pakistan #640,Arterial,3388,30,4,32.5832368,74.0978671
641,NEAR SCHOOL ROAD GUJRAT Pakistan #641,Rural,5007,100,5,32.5897727,74.0514371
642,GT ROAD GUJRAT Pakistan #642,Rural,1543,80,3,32.5730725,74.1005044
643,DINGA ROAD GUJRAT Pakistan #643,Highway,3830,120,3,32.5819698,74.0469034
644,NEAR SCHOOL ROAD GUJRAT Pakistan #644,Arterial,2348,60,5,32.5643094,74.0589911
645,NEAR PSO PUMP GUJRAT Pakistan #645,Residential,5192,120,2,32.5925382,74.0468811
646,VILLAGE LINK ROAD GUJRAT Pakistan #646,Residential,4433,60,1,32.6038722,74.1374565
647,DINGA ROAD GUJRAT Pakistan #647,Arterial,3003,60,4,32.5846657,74.0782285
648,NEAR PSO PUMP GUJRAT Pakistan #648,Arterial,2428,60,3,32.5885521,74.053398
649,CHOWK AREA GUJRAT Pakistan #649,Residential,2597,80,5,32.5860535,74.0793796
650,NEAR BUS STOP GUJRAT Pakistan #650,Highway,2194,50,3,32.5690734,74.072083
651,SERVICE ROAD GUJRAT Pakistan #651,Arterial,3306,50,3,32.6284408,74.2332458
652,VILLAGE LINK ROAD GUJRAT Pakistan #652,Highway,3394,100,4,32.5851036,74.0550855
653,GT ROAD GUJRAT Pakistan #653,Arterial,1554,30,2,32.5588588,74.0433025
654,DINGA ROAD GUJRAT Pakistan #654,Highway,4037,30,4,32.6041525,74.1012386
655,NEAR MARKET GUJRAT Pakistan #655,Rural,2191,40,2,32.7031508,74.3691879
656,SERVICE ROAD GUJRAT Pakistan #656,Residential,1386,30,5,32.5730725,74.1005044
657,SERVICE ROAD GUJRAT Pakistan #657,Residential,3040,60,1,32.6327452,74.0053154
658,NEAR SCHOOL ROAD GUJRAT Pakistan #658,Residential,2009,120,1,32.5546174,74.0710128
659,VILLAGE LINK ROAD GUJRAT Pakistan #659,Highway,3689,40,4,32.5632546,74.100451
660,CHOWK AREA GUJRAT Pakistan #660,Highway,1146,100,1,32.5765514,74.0810037
661,DINGA ROAD GUJRAT Pakistan #661,Arterial,3458,120,5,32.5673536,74.0796633
662,NEAR PSO PUMP GUJRAT Pakistan #662,Highway,2549,30,2,32.4859062,74.0989959
663,BHIMBER ROAD GUJRAT Pakistan #663,Arterial,838,60,6,32.5470219,74.0748072
664,VILLAGE LINK ROAD GUJRAT Pakistan #664,Rural,1064,120,1,32.5119798,74.0329499
665,NEAR MARKET GUJRAT Pakistan #665,Highway,3764,40,5,32.5652943,74.0826703
666,GT ROAD GUJRAT Pakistan #666,Arterial,2655,50,2,32.584226,74.071835
667,JALALPUR JATTAN ROAD GUJRAT Pakistan #667,Residential,2188,120,4,32.5588588,74.0433025
668,UNIVERSITY ROAD GUJRAT Pakistan #668,Highway,3213,80,5,32.6480365,74.2120629
669,JALALPUR JATTAN ROAD GUJRAT Pakistan #669,Highway,2452,50,3,32.5362617,74.0608558
670,JALALPUR JATTAN ROAD GUJRAT Pakistan #670,Arterial,3234,60,4,32.5730725,74.1005044
671,NEAR PSO PUMP GUJRAT Pakistan #671,Highway,2220,40,4,32.5850799,74.0428197
672,NEAR MARKET GUJRAT Pakistan #672,Arterial,4516,80,4,32.4950197,74.0796864
673,JALALPUR JATTAN ROAD GUJRAT Pakistan #673,Highway,1310,120,5,32.6157255,74.1482186
674,NEAR MARKET GUJRAT Pakistan #674,Highway,4970,40,5,32.5832432,74.0469324
675,DINGA ROAD GUJRAT Pakistan #675,Arterial,1442,60,5,32.5779143,74.0640682
676,BHIMBER ROAD GUJRAT Pakistan #676,Highway,4066,30,1,32.5712094,74.0781113
677,JALALPUR JATTAN ROAD GUJRAT Pakistan #677,Highway,3946,100,1,32.5861616,74.0635014
678,CHOWK AREA GUJRAT Pakistan #678,Residential,5147,30,2,32.5588588,74.0433025
679,GT ROAD GUJRAT Pakistan #679,Arterial,4636,80,4,32.563397,74.0688774
680,CHOWK AREA GUJRAT Pakistan #680,Arterial,2367,100,4,32.6008428,74.0491065
681,VILLAGE LINK ROAD GUJRAT Pakistan #681,Highway,2873,30,4,32.5730725,74.1005044
682,DINGA ROAD GUJRAT Pakistan #682,Arterial,4748,30,6,32.583994,74.1257065
683,NEAR SCHOOL ROAD GUJRAT Pakistan #683,Highway,3805,30,3,32.5628494,74.0537739
684,NEAR SCHOOL ROAD GUJRAT Pakistan #684,Highway,2602,120,3,32.6097075,74.0787731
685,VILLAGE LINK ROAD GUJRAT Pakistan #685,Rural,2598,80,2,32.5730725,74.1005044
686,NEAR PSO PUMP GUJRAT Pakistan #686,Residential,4268,40,1,32.5817243,74.0690014
687,JALALPUR JATTAN ROAD GUJRAT Pakistan #687,Residential,1587,30,4,32.5730725,74.1005044
688,UNIVERSITY ROAD GUJRAT Pakistan #688,Highway,755,40,2,32.56632,74.0703689
689,NEAR PSO PUMP GUJRAT Pakistan #689,Residential,4745,50,3,32.5039517,74.0506701
690,GT ROAD GUJRAT Pakistan #690,Residential,877,80,5,32.5763422,74.0787062
691,VILLAGE LINK ROAD GUJRAT Pakistan #691,Highway,1883,50,3,32.6162481,74.1420179
692,NEAR PSO PUMP GUJRAT Pakistan #692,Highway,4863,80,6,32.6301772,74.1837645
693,BHIMBER ROAD GUJRAT Pakistan #693,Arterial,3795,100,1,32.5723863,74.0683129
694,CHOWK AREA GUJRAT Pakistan #694,Highway,2884,40,6,32.5648842,74.0848783
695,NEAR PSO PUMP GUJRAT Pakistan #695,Residential,2342,80,2,32.5838405,74.0900104
696,CHOWK AREA GUJRAT Pakistan #696,Arterial,3840,60,6,32.6708206,74.0837749
697,UNIVERSITY ROAD GUJRAT Pakistan #697,Residential,4725,30,5,32.5897187,74.0493945
698,NEAR MARKET GUJRAT Pakistan #698,Residential,1983,50,6,32.5683294,74.0722163
699,SERVICE ROAD GUJRAT Pakistan #699,Rural,3952,50,6,32.5809666,74.0769405
700,NEAR MARKET GUJRAT Pakistan #700,Residential,1454,40,4,32.6403926,74.1992232
701,GT ROAD GUJRAT Pakistan #701,Arterial,653,30,6,32.6986797,74.1338042
702,CHOWK AREA GUJRAT Pakistan #702,Residential,3776,120,1,32.5076265,74.0942913
703,VILLAGE LINK ROAD GUJRAT Pakistan #703,Highway,4536,60,3,32.5862974,74.0567177
704,NEAR MARKET GUJRAT Pakistan #704,Residential,3002,120,2,32.6230559,74.0744401
705,NEAR BUS STOP GUJRAT Pakistan #705,Highway,3369,30,5,32.5920665,74.0806389
706,DINGA ROAD GUJRAT Pakistan #706,Residential,1317,100,3,32.5730725,74.1005044
707,VILLAGE LINK ROAD GUJRAT Pakistan #707,Rural,3982,80,6,32.5599022,74.0465467
708,GT ROAD GUJRAT Pakistan #708,Rural,2389,80,3,32.6347013,74.0083242
709,NEAR MARKET GUJRAT Pakistan #709,Rural,3830,50,6,32.5730725,74.1005044
710,VILLAGE LINK ROAD GUJRAT Pakistan #710,Rural,4061,50,2,32.5696998,74.063793
711,NEAR PSO PUMP GUJRAT Pakistan #711,Residential,1452,100,2,32.6097075,74.0787731
712,NEAR BUS STOP GUJRAT Pakistan #712,Highway,4527,30,2,32.5470219,74.0748072
713,JALALPUR JATTAN ROAD GUJRAT Pakistan #713,Highway,4086,40,4,32.592058,74.075746
714,BHIMBER ROAD GUJRAT Pakistan #714,Residential,2825,120,3,32.5119798,74.0329499
715,GT ROAD GUJRAT Pakistan #715,Residential,1054,50,4,32.5853175,74.0818244
716,UNIVERSITY ROAD GUJRAT Pakistan #716,Residential,4669,100,3,32.6468571,74.2119253
717,BHIMBER ROAD GUJRAT Pakistan #717,Rural,1832,40,2,32.564078,74.0582133
718,UNIVERSITY ROAD GUJRAT Pakistan #718,Arterial,2716,40,6,32.6156425,74.0791814
719,CHOWK AREA GUJRAT Pakistan #719,Residential,4166,30,4,32.5670037,74.066112
720,VILLAGE LINK ROAD GUJRAT Pakistan #720,Arterial,4269,80,1,32.5860535,74.0793796
721,VILLAGE LINK ROAD GUJRAT Pakistan #721,Residential,2612,100,2,32.5692876,74.0998171
722,SERVICE ROAD GUJRAT Pakistan #722,Arterial,653,40,6,32.5588588,74.0433025
723,BHIMBER ROAD GUJRAT Pakistan #723,Residential,1515,100,3,32.6015178,74.0415515
724,SERVICE ROAD GUJRAT Pakistan #724,Highway,3870,40,5,32.5833226,74.1025865
725,GT ROAD GUJRAT Pakistan #725,Residential,1100,60,4,32.565822,74.0516865
726,CHOWK AREA GUJRAT Pakistan #726,Rural,1637,80,6,32.5913519,74.0608558
727,DINGA ROAD GUJRAT Pakistan #727,Residential,4289,30,3,32.5897727,74.0514371
728,SERVICE ROAD GUJRAT Pakistan #728,Residential,2416,60,5,32.5698781,74.0739313
729,NEAR PSO PUMP GUJRAT Pakistan #729,Highway,1492,80,5,32.584024,74.073181
730,NEAR SCHOOL ROAD GUJRAT Pakistan #730,Rural,3702,60,4,32.580485,74.0830427
731,NEAR SCHOOL ROAD GUJRAT Pakistan #731,Highway,1867,120,4,32.5756052,74.0951516
732,BHIMBER ROAD GUJRAT Pakistan #732,Arterial,4968,120,3,32.6120603,74.0295656
733,SERVICE ROAD GUJRAT Pakistan #733,Residential,3200,40,5,32.5762176,74.0763878
734,GT ROAD GUJRAT Pakistan #734,Residential,2617,50,4,32.5655575,74.0878892
735,JALALPUR JATTAN ROAD GUJRAT Pakistan #735,Arterial,2424,80,4,32.5730725,74.1005044
736,NEAR SCHOOL ROAD GUJRAT Pakistan #736,Rural,678,100,2,32.5452169,74.0913865
737,NEAR PSO PUMP GUJRAT Pakistan #737,Highway,2067,80,2,32.5644072,74.0583776
738,GT ROAD GUJRAT Pakistan #738,Residential,4356,60,2,32.5934205,74.0621574
739,NEAR BUS STOP GUJRAT Pakistan #739,Arterial,4316,50,2,32.5730725,74.1005044
740,UNIVERSITY ROAD GUJRAT Pakistan #740,Residential,2661,40,4,32.6201744,74.0789545
741,GT ROAD GUJRAT Pakistan #741,Highway,2749,80,1,32.5690734,74.072083
742,JALALPUR JATTAN ROAD GUJRAT Pakistan #742,Residential,2621,40,4,32.5964724,74.1430807
743,NEAR SCHOOL ROAD GUJRAT Pakistan #743,Highway,1512,50,4,32.5990671,74.1492914
744,VILLAGE LINK ROAD GUJRAT Pakistan #744,Arterial,1792,80,3,32.6403926,74.1992232
745,GT ROAD GUJRAT Pakistan #745,Highway,3180,60,5,32.5809666,74.0769405
746,UNIVERSITY ROAD GUJRAT Pakistan #746,Highway,1193,80,5,32.5654829,74.0753995
747,NEAR PSO PUMP GUJRAT Pakistan #747,Residential,2125,100,2,32.618091,74.078387
748,UNIVERSITY ROAD GUJRAT Pakistan #748,Residential,1481,60,5,32.5622791,74.1342726
749,JALALPUR JATTAN ROAD GUJRAT Pakistan #749,Highway,4015,60,1,32.5730725,74.1005044
750,UNIVERSITY ROAD GUJRAT Pakistan #750,Arterial,1665,80,4,32.562705,74.0535033
751,DINGA ROAD GUJRAT Pakistan #751,Highway,2362,60,5,32.5925382,74.0468811
752,DINGA ROAD GUJRAT Pakistan #752,Residential,1629,80,5,32.5792953,74.0898221
753,DINGA ROAD GUJRAT Pakistan #753,Highway,1276,100,1,32.5723863,74.0683129
754,NEAR MARKET GUJRAT Pakistan #754,Residential,989,80,2,32.5875157,74.1066395
755,CHOWK AREA GUJRAT Pakistan #755,Rural,2989,100,1,32.607844,74.1434936
756,GT ROAD GUJRAT Pakistan #756,Residential,1030,80,6,32.5692876,74.0998171
757,NEAR BUS STOP GUJRAT Pakistan #757,Residential,1358,40,4,32.5730725,74.1005044
758,DINGA ROAD GUJRAT Pakistan #758,Highway,1408,100,1,32.5817747,74.0580103
759,BHIMBER ROAD GUJRAT Pakistan #759,Highway,3501,120,3,32.5828036,74.0800539
760,DINGA ROAD GUJRAT Pakistan #760,Arterial,5008,60,3,32.5829922,74.0580543
761,VILLAGE LINK ROAD GUJRAT Pakistan #761,Arterial,841,30,2,32.6301772,74.1837645
762,VILLAGE LINK ROAD GUJRAT Pakistan #762,Highway,3421,30,4,32.5692876,74.0998171
763,NEAR BUS STOP GUJRAT Pakistan #763,Rural,4485,60,2,32.5692481,74.0934219
764,NEAR SCHOOL ROAD GUJRAT Pakistan #764,Arterial,2279,50,6,32.6301772,74.1837645
765,CHOWK AREA GUJRAT Pakistan #765,Highway,918,100,2,32.563397,74.0688774
766,DINGA ROAD GUJRAT Pakistan #766,Highway,1218,30,4,32.5809666,74.0769405
767,JALALPUR JATTAN ROAD GUJRAT Pakistan #767,Arterial,3787,100,4,32.6097075,74.0787731
768,JALALPUR JATTAN ROAD GUJRAT Pakistan #768,Highway,2801,100,5,32.6480365,74.2120629
769,BHIMBER ROAD GUJRAT Pakistan #769,Arterial,3933,60,6,32.5625298,74.0796826
770,UNIVERSITY ROAD GUJRAT Pakistan #770,Highway,4161,50,3,32.5320205,74.0666046
771,SERVICE ROAD GUJRAT Pakistan #771,Arterial,4430,50,5,32.5983846,74.0248712
772,NEAR BUS STOP GUJRAT Pakistan #772,Residential,5097,120,4,32.5600873,74.0828027
773,NEAR BUS STOP GUJRAT Pakistan #773,Residential,3655,40,5,32.5599022,74.0465467
774,DINGA ROAD GUJRAT Pakistan #774,Arterial,2349,60,3,32.5588588,74.0433025
775,VILLAGE LINK ROAD GUJRAT Pakistan #775,Rural,1651,40,3,32.5850799,74.0428197
776,VILLAGE LINK ROAD GUJRAT Pakistan #776,Residential,4694,100,6,32.5913519,74.0608558
777,NEAR PSO PUMP GUJRAT Pakistan #777,Residential,3911,50,6,32.6460466,74.210953
778,GT ROAD GUJRAT Pakistan #778,Residential,4709,40,4,32.5624664,74.0644355
779,CHOWK AREA GUJRAT Pakistan #779,Residential,3215,40,4,32.5575437,74.0754688
780,NEAR PSO PUMP GUJRAT Pakistan #780,Residential,5149,40,3,32.5729112,74.0739545
781,NEAR SCHOOL ROAD GUJRAT Pakistan #781,Highway,1117,30,2,32.558159,74.0575935
782,NEAR SCHOOL ROAD GUJRAT Pakistan #782,Residential,3252,50,5,32.6022189,74.0342452
783,NEAR SCHOOL ROAD GUJRAT Pakistan #783,Arterial,1266,60,2,32.5696661,74.0419768
784,NEAR PSO PUMP GUJRAT Pakistan #784,Arterial,737,80,1,32.5856387,74.0672164
785,NEAR MARKET GUJRAT Pakistan #785,Residential,2777,60,5,32.6209735,74.0788898
786,NEAR PSO PUMP GUJRAT Pakistan #786,Residential,4101,100,1,32.586973,74.0617
787,JALALPUR JATTAN ROAD GUJRAT Pakistan #787,Arterial,4633,80,3,32.5640747,74.0774111
788,SERVICE ROAD GUJRAT Pakistan #788,Highway,2493,120,2,32.5762176,74.0763878
789,DINGA ROAD GUJRAT Pakistan #789,Arterial,4230,60,2,32.5850799,74.0428197
790,SERVICE ROAD GUJRAT Pakistan #790,Arterial,4337,40,6,32.6525559,74.1950032
791,NEAR BUS STOP GUJRAT Pakistan #791,Highway,4854,40,2,32.5656424,74.0765177
792,DINGA ROAD GUJRAT Pakistan #792,Residential,1442,120,2,32.5723863,74.0683129
793,DINGA ROAD GUJRAT Pakistan #793,Arterial,1900,60,4,32.5692876,74.0998171
794,VILLAGE LINK ROAD GUJRAT Pakistan #794,Residential,2957,120,2,32.5730725,74.1005044
795,JALALPUR JATTAN ROAD GUJRAT Pakistan #795,Arterial,3091,30,3,32.5632439,74.0406361
796,UNIVERSITY ROAD GUJRAT Pakistan #796,Residential,3654,40,2,32.6688828,74.1770858
797,GT ROAD GUJRAT Pakistan #797,Residential,5151,80,3,32.5791625,74.0826263
798,JALALPUR JATTAN ROAD GUJRAT Pakistan #798,Rural,4847,30,6,32.5730725,74.1005044
799,VILLAGE LINK ROAD GUJRAT Pakistan #799,Residential,1001,50,6,32.6097075,74.0787731
800,SERVICE ROAD GUJRAT Pakistan #800,Arterial,5103,100,2,32.5808474,74.0942488
801,NEAR MARKET GUJRAT Pakistan #801,Rural,4855,60,6,32.6173133,74.0783615
802,NEAR SCHOOL ROAD GUJRAT Pakistan #802,Residential,4710,120,4,32.5730725,74.1005044
803,UNIVERSITY ROAD GUJRAT Pakistan #803,Highway,4363,100,3,32.5767616,74.0635991
804,NEAR BUS STOP GUJRAT Pakistan #804,Residential,2995,50,5,32.5911139,74.04804
805,JALALPUR JATTAN ROAD GUJRAT Pakistan #805,Arterial,3572,30,4,32.5675776,74.0792704
806,NEAR PSO PUMP GUJRAT Pakistan #806,Residential,3388,30,1,32.6447285,74.0399268
807,BHIMBER ROAD GUJRAT Pakistan #807,Highway,1008,80,3,32.5692876,74.0998171
808,UNIVERSITY ROAD GUJRAT Pakistan #808,Highway,1768,60,3,32.626954,74.175865
809,NEAR SCHOOL ROAD GUJRAT Pakistan #809,Residential,872,100,2,32.588819,74.050577
810,SERVICE ROAD GUJRAT Pakistan #810,Residential,4947,40,6,32.5757806,74.0749365
811,NEAR SCHOOL ROAD GUJRAT Pakistan #811,Arterial,2127,40,5,32.6063008,74.0606722
812,NEAR MARKET GUJRAT Pakistan #812,Rural,2346,80,5,32.5862974,74.0567177
813,NEAR PSO PUMP GUJRAT Pakistan #813,Highway,4469,30,2,32.5722887,74.042125
814,SERVICE ROAD GUJRAT Pakistan #814,Arterial,3683,80,6,32.6245827,74.1730541
815,CHOWK AREA GUJRAT Pakistan #815,Highway,3212,80,5,32.5765514,74.0810037
816,SERVICE ROAD GUJRAT Pakistan #816,Residential,4061,120,5,32.5927722,74.1157376
817,CHOWK AREA GUJRAT Pakistan #817,Rural,781,120,3,32.550686,74.090177
818,CHOWK AREA GUJRAT Pakistan #818,Arterial,3360,120,3,32.6097075,74.0787731
819,NEAR PSO PUMP GUJRAT Pakistan #819,Rural,2501,60,4,32.5925382,74.0468811
820,VILLAGE LINK ROAD GUJRAT Pakistan #820,Highway,2252,100,6,32.6357563,74.1898267
821,VILLAGE LINK ROAD GUJRAT Pakistan #821,Residential,4283,120,3,32.4576653,74.1782666
822,NEAR SCHOOL ROAD GUJRAT Pakistan #822,Arterial,3307,30,3,32.6065978,74.0996022
823,CHOWK AREA GUJRAT Pakistan #823,Arterial,4767,50,3,32.6377717,74.1958929
824,CHOWK AREA GUJRAT Pakistan #824,Arterial,2465,120,4,32.5640348,74.0575465
825,NEAR BUS STOP GUJRAT Pakistan #825,Residential,4626,30,1,32.5729112,74.0739545
826,BHIMBER ROAD GUJRAT Pakistan #826,Highway,1936,80,1,32.5813339,74.0804143
827,JALALPUR JATTAN ROAD GUJRAT Pakistan #827,Rural,724,60,3,32.5588588,74.0433025
828,CHOWK AREA GUJRAT Pakistan #828,Highway,2753,30,3,32.5625298,74.0796826
829,BHIMBER ROAD GUJRAT Pakistan #829,Rural,1191,40,5,32.5828941,74.1087452
830,CHOWK AREA GUJRAT Pakistan #830,Residential,2637,100,6,32.5853175,74.0818244
831,NEAR SCHOOL ROAD GUJRAT Pakistan #831,Rural,3530,50,4,32.5696661,74.0419768
832,NEAR SCHOOL ROAD GUJRAT Pakistan #832,Highway,1487,60,3,32.557359,74.0856813
833,SERVICE ROAD GUJRAT Pakistan #833,Arterial,3720,60,6,32.5832368,74.0978671
834,VILLAGE LINK ROAD GUJRAT Pakistan #834,Residential,939,50,1,32.5789042,74.0669381
835,NEAR SCHOOL ROAD GUJRAT Pakistan #835,Residential,2698,60,6,32.5416391,74.0031448
836,DINGA ROAD GUJRAT Pakistan #836,Highway,4592,120,2,32.5588588,74.0433025
837,NEAR PSO PUMP GUJRAT Pakistan #837,Rural,2226,100,3,32.5934834,74.0796184
838,GT ROAD GUJRAT Pakistan #838,Highway,4561,100,4,32.569668,74.084245
839,NEAR BUS STOP GUJRAT Pakistan #839,Highway,2580,100,4,32.6248217,74.1386767
840,VILLAGE LINK ROAD GUJRAT Pakistan #840,Rural,3378,30,5,32.5913519,74.0608558
841,CHOWK AREA GUJRAT Pakistan #841,Highway,4778,50,1,32.626954,74.175865
842,JALALPUR JATTAN ROAD GUJRAT Pakistan #842,Residential,1281,40,6,32.6097075,74.0787731
843,NEAR SCHOOL ROAD GUJRAT Pakistan #843,Arterial,1679,60,1,32.6038722,74.1374565
844,NEAR MARKET GUJRAT Pakistan #844,Residential,4833,100,4,32.6245827,74.1730541
845,CHOWK AREA GUJRAT Pakistan #845,Arterial,1813,40,4,32.5730725,74.1005044
846,NEAR MARKET GUJRAT Pakistan #846,Arterial,3166,50,6,32.5119798,74.0329499
847,NEAR SCHOOL ROAD GUJRAT Pakistan #847,Arterial,4539,50,2,32.5954494,74.0446875
848,JALALPUR JATTAN ROAD GUJRAT Pakistan #848,Arterial,1929,60,3,32.565822,74.0516865
849,VILLAGE LINK ROAD GUJRAT Pakistan #849,Residential,2002,50,1,32.5806524,74.0829921
850,DINGA ROAD GUJRAT Pakistan #850,Residential,2158,50,1,32.583662,74.1078459
851,CHOWK AREA GUJRAT Pakistan #851,Arterial,975,60,4,32.6682786,74.115348
852,NEAR BUS STOP GUJRAT Pakistan #852,Rural,5012,120,4,32.6125404,74.1555581
853,NEAR SCHOOL ROAD GUJRAT Pakistan #853,Highway,1656,40,3,32.5632546,74.100451
854,SERVICE ROAD GUJRAT Pakistan #854,Residential,4905,120,5,32.5588588,74.0433025
855,JALALPUR JATTAN ROAD GUJRAT Pakistan #855,Arterial,2570,30,6,32.544637,74.1203256
856,GT ROAD GUJRAT Pakistan #856,Highway,3864,120,4,32.5640348,74.0575465
857,BHIMBER ROAD GUJRAT Pakistan #857,Highway,3863,80,6,32.6406782,74.0055785
858,CHOWK AREA GUJRAT Pakistan #858,Highway,3560,60,2,32.5552696,74.0742096
859,UNIVERSITY ROAD GUJRAT Pakistan #859,Residential,1520,120,6,32.5862974,74.0567177
860,BHIMBER ROAD GUJRAT Pakistan #860,Highway,3232,40,3,32.5672333,74.0709434
861,GT ROAD GUJRAT Pakistan #861,Rural,3265,60,6,32.5754138,74.0638213
862,NEAR SCHOOL ROAD GUJRAT Pakistan #862,Arterial,4178,100,5,32.5866551,74.0632642
863,BHIMBER ROAD GUJRAT Pakistan #863,Residential,5169,30,2,32.5640348,74.0575465
864,DINGA ROAD GUJRAT Pakistan #864,Arterial,5117,50,4,32.6173133,74.0783615
865,CHOWK AREA GUJRAT Pakistan #865,Residential,4775,50,1,32.6041525,74.1012386
866,JALALPUR JATTAN ROAD GUJRAT Pakistan #866,Rural,2166,80,4,32.5730725,74.1005044
867,JALALPUR JATTAN ROAD GUJRAT Pakistan #867,Residential,4980,100,4,32.5320365,74.0982261
868,GT ROAD GUJRAT Pakistan #868,Arterial,4903,40,5,32.5545087,74.0873189
869,UNIVERSITY ROAD GUJRAT Pakistan #869,Arterial,2939,100,6,32.5774479,74.0631351
870,NEAR PSO PUMP GUJRAT Pakistan #870,Highway,4745,100,1,32.685526,74.3220873
871,UNIVERSITY ROAD GUJRAT Pakistan #871,Rural,859,50,6,32.5665945,74.079673
872,JALALPUR JATTAN ROAD GUJRAT Pakistan #872,Residential,4189,40,2,32.5712094,74.0781113
873,NEAR PSO PUMP GUJRAT Pakistan #873,Residential,3875,80,5,32.5757806,74.0749365
874,CHOWK AREA GUJRAT Pakistan #874,Arterial,2043,30,4,32.5817243,74.0690014
875,GT ROAD GUJRAT Pakistan #875,Highway,2075,80,5,32.5794063,74.0483721
876,DINGA ROAD GUJRAT Pakistan #876,Arterial,4824,50,5,32.56632,74.0703689
877,NEAR SCHOOL ROAD GUJRAT Pakistan #877,Arterial,3908,40,4,32.5730725,74.1005044
878,NEAR MARKET GUJRAT Pakistan #878,Arterial,5164,120,3,32.5862974,74.0567177
879,BHIMBER ROAD GUJRAT Pakistan #879,Residential,2179,120,3,32.50873,74.0072379
880,JALALPUR JATTAN ROAD GUJRAT Pakistan #880,Highway,4978,80,2,32.5843073,74.0764902
881,BHIMBER ROAD GUJRAT Pakistan #881,Highway,789,40,6,32.6097075,74.0787731
882,GT ROAD GUJRAT Pakistan #882,Residential,4476,40,1,32.5730725,74.1005044
883,CHOWK AREA GUJRAT Pakistan #883,Highway,1800,100,4,32.5656424,74.0765177
884,NEAR BUS STOP GUJRAT Pakistan #884,Residential,2015,50,6,32.539531,74.0637224
885,NEAR MARKET GUJRAT Pakistan #885,Residential,1753,60,1,32.5730725,74.1005044
886,NEAR SCHOOL ROAD GUJRAT Pakistan #886,Arterial,4475,40,6,32.5843073,74.0764902
887,CHOWK AREA GUJRAT Pakistan #887,Residential,2146,120,3,32.5712012,74.0750116
888,SERVICE ROAD GUJRAT Pakistan #888,Residential,1306,100,5,32.5806964,74.0769031
889,BHIMBER ROAD GUJRAT Pakistan #889,Rural,2882,60,6,32.5712012,74.0750116
890,NEAR PSO PUMP GUJRAT Pakistan #890,Rural,1024,120,3,32.5886348,74.0910733
891,NEAR MARKET GUJRAT Pakistan #891,Rural,1335,50,6,32.5798775,74.0602528
892,UNIVERSITY ROAD GUJRAT Pakistan #892,Highway,1579,40,3,32.5093675,74.0971763
893,NEAR PSO PUMP GUJRAT Pakistan #893,Residential,2429,40,5,32.5862974,74.0567177
894,BHIMBER ROAD GUJRAT Pakistan #894,Rural,1919,80,2,32.6298988,74.1460166
895,BHIMBER ROAD GUJRAT Pakistan #895,Highway,2843,30,1,32.5656424,74.0765177
896,VILLAGE LINK ROAD GUJRAT Pakistan #896,Highway,2700,120,2,32.5864763,74.0638925
897,NEAR BUS STOP GUJRAT Pakistan #897,Highway,4064,50,1,32.5730725,74.1005044
898,DINGA ROAD GUJRAT Pakistan #898,Highway,3236,40,5,32.5671749,74.0753637
899,CHOWK AREA GUJRAT Pakistan #899,Highway,1637,60,2,32.57062,74.0809309
900,NEAR BUS STOP GUJRAT Pakistan #900,Arterial,4051,100,3,32.5692876,74.0998171
901,BHIMBER ROAD GUJRAT Pakistan #901,Highway,2802,100,1,32.4886759,74.0911437
902,NEAR PSO PUMP GUJRAT Pakistan #902,Rural,2641,60,1,32.5911139,74.04804
903,NEAR MARKET GUJRAT Pakistan #903,Residential,3888,40,2,32.5640747,74.0774111
904,NEAR BUS STOP GUJRAT Pakistan #904,Highway,1722,100,4,32.5932314,74.0440804
905,SERVICE ROAD GUJRAT Pakistan #905,Arterial,2082,120,3,32.5672333,74.0709434
906,UNIVERSITY ROAD GUJRAT Pakistan #906,Rural,3120,30,6,32.5768686,74.0810778
907,VILLAGE LINK ROAD GUJRAT Pakistan #907,Residential,1751,50,4,32.5694082,74.0726285
908,UNIVERSITY ROAD GUJRAT Pakistan #908,Rural,2274,50,4,32.5642117,74.0794007
909,GT ROAD GUJRAT Pakistan #909,Residential,2750,100,6,32.5717927,74.06886
910,SERVICE ROAD GUJRAT Pakistan #910,Rural,1084,120,6,32.5155992,74.0475456
911,DINGA ROAD GUJRAT Pakistan #911,Rural,1097,50,1,32.6039016,74.137435
912,DINGA ROAD GUJRAT Pakistan #912,Arterial,674,100,4,32.571463,74.080797
913,SERVICE ROAD GUJRAT Pakistan #913,Residential,4879,80,3,32.5730725,74.1005044
914,NEAR MARKET GUJRAT Pakistan #914,Arterial,1913,120,5,32.5724557,74.0686943
915,BHIMBER ROAD GUJRAT Pakistan #915,Highway,2224,60,5,32.5730725,74.1005044
916,NEAR SCHOOL ROAD GUJRAT Pakistan #916,Residential,2512,30,4,32.5452169,74.0913865
917,NEAR BUS STOP GUJRAT Pakistan #917,Arterial,2912,60,3,32.5644072,74.0583776
918,DINGA ROAD GUJRAT Pakistan #918,Arterial,4497,50,5,32.612716,74.02938
919,GT ROAD GUJRAT Pakistan #919,Arterial,3337,100,5,32.513006,74.0674645
920,GT ROAD GUJRAT Pakistan #920,Arterial,1755,120,6,32.5605562,74.0475003
921,UNIVERSITY ROAD GUJRAT Pakistan #921,Highway,1042,100,5,32.564684,74.0593003
922,NEAR PSO PUMP GUJRAT Pakistan #922,Arterial,1452,30,2,32.6057903,74.0872892
923,JALALPUR JATTAN ROAD GUJRAT Pakistan #923,Arterial,1936,40,2,32.5666778,74.069578
924,VILLAGE LINK ROAD GUJRAT Pakistan #924,Rural,1336,100,6,32.5850799,74.0428197
925,DINGA ROAD GUJRAT Pakistan #925,Highway,3794,30,3,32.5604448,74.0472217
926,GT ROAD GUJRAT Pakistan #926,Residential,4286,100,1,32.5583951,74.0757951
927,NEAR BUS STOP GUJRAT Pakistan #927,Arterial,4942,80,2,32.6008428,74.0491065
928,DINGA ROAD GUJRAT Pakistan #928,Highway,4576,60,5,32.5927722,74.1157376
929,VILLAGE LINK ROAD GUJRAT Pakistan #929,Highway,2280,120,3,32.5588588,74.0433025
930,BHIMBER ROAD GUJRAT Pakistan #930,Arterial,3063,120,3,32.588819,74.050577
931,SERVICE ROAD GUJRAT Pakistan #931,Highway,3646,120,1,32.5785556,74.073081
932,DINGA ROAD GUJRAT Pakistan #932,Arterial,1802,80,3,32.5625405,74.0797928
933,BHIMBER ROAD GUJRAT Pakistan #933,Highway,2367,40,2,32.6097632,74.0793
934,SERVICE ROAD GUJRAT Pakistan #934,Highway,2449,120,6,32.5751763,74.0664232
935,NEAR BUS STOP GUJRAT Pakistan #935,Residential,1193,80,3,32.5729112,74.0739545
936,SERVICE ROAD GUJRAT Pakistan #936,Residential,3011,100,5,32.5588588,74.0433025
937,JALALPUR JATTAN ROAD GUJRAT Pakistan #937,Residential,2604,40,1,32.5738458,74.0818889
938,NEAR SCHOOL ROAD GUJRAT Pakistan #938,Arterial,5183,60,4,32.6245861,74.0194161
939,UNIVERSITY ROAD GUJRAT Pakistan #939,Highway,3213,30,1,32.5588588,74.0433025
940,BHIMBER ROAD GUJRAT Pakistan #940,Arterial,3880,100,2,32.5624664,74.0644355
941,NEAR MARKET GUJRAT Pakistan #941,Rural,3503,100,1,32.6373179,74.2144198
942,VILLAGE LINK ROAD GUJRAT Pakistan #942,Rural,3036,80,6,32.5904601,74.0798682
943,VILLAGE LINK ROAD GUJRAT Pakistan #943,Rural,1091,30,1,32.5118089,74.0938671
944,CHOWK AREA GUJRAT Pakistan #944,Arterial,2002,50,6,32.626954,74.175865
945,NEAR PSO PUMP GUJRAT Pakistan #945,Arterial,749,120,1,32.5921906,74.116012
946,NEAR MARKET GUJRAT Pakistan #946,Residential,3700,40,1,32.5969659,74.0338813
947,NEAR MARKET GUJRAT Pakistan #947,Rural,3699,80,5,32.5730725,74.1005044
948,BHIMBER ROAD GUJRAT Pakistan #948,Arterial,4982,30,4,32.5730725,74.1005044
949,CHOWK AREA GUJRAT Pakistan #949,Residential,729,80,1,32.6245827,74.1730541
950,SERVICE ROAD GUJRAT Pakistan #950,Rural,928,30,1,32.5588588,74.0433025
951,NEAR PSO PUMP GUJRAT Pakistan #951,Arterial,4896,40,6,32.6377717,74.1958929
952,JALALPUR JATTAN ROAD GUJRAT Pakistan #952,Highway,4200,100,4,32.5839917,74.0782035
953,UNIVERSITY ROAD GUJRAT Pakistan #953,Rural,4686,50,1,32.5664481,74.0796746
954,NEAR PSO PUMP GUJRAT Pakistan #954,Arterial,3880,80,3,32.5754138,74.0638213
955,UNIVERSITY ROAD GUJRAT Pakistan #955,Highway,4555,50,2,32.5720983,74.0844027
956,DINGA ROAD GUJRAT Pakistan #956,Residential,1505,50,4,32.626954,74.175865
957,VILLAGE LINK ROAD GUJRAT Pakistan #957,Highway,4801,30,2,32.6194944,74.0631911
958,GT ROAD GUJRAT Pakistan #958,Highway,4008,40,5,32.6356051,74.0094471
959,NEAR SCHOOL ROAD GUJRAT Pakistan #959,Residential,782,50,3,32.6039016,74.137435
960,SERVICE ROAD GUJRAT Pakistan #960,Highway,2107,80,5,32.5751763,74.0664232
961,NEAR PSO PUMP GUJRAT Pakistan #961,Highway,3720,120,3,32.6177622,74.0792612
962,SERVICE ROAD GUJRAT Pakistan #962,Highway,1371,80,1,32.5954494,74.0446875
963,NEAR MARKET GUJRAT Pakistan #963,Rural,1866,120,1,32.563397,74.0688774
964,GT ROAD GUJRAT Pakistan #964,Residential,3930,50,3,32.5765368,74.0801638
965,NEAR PSO PUMP GUJRAT Pakistan #965,Arterial,3004,60,1,32.5588588,74.0433025
966,NEAR BUS STOP GUJRAT Pakistan #966,Residential,1958,100,3,32.5499292,74.0704819
967,CHOWK AREA GUJRAT Pakistan #967,Arterial,4356,120,6,32.6022189,74.0342452
968,DINGA ROAD GUJRAT Pakistan #968,Residential,3423,40,1,32.5588588,74.0433025
969,NEAR SCHOOL ROAD GUJRAT Pakistan #969,Arterial,3653,50,3,32.587773,74.054796
970,CHOWK AREA GUJRAT Pakistan #970,Residential,2835,80,5,32.5624664,74.0644355
971,SERVICE ROAD GUJRAT Pakistan #971,Highway,4573,30,4,32.5690734,74.072083
972,UNIVERSITY ROAD GUJRAT Pakistan #972,Highway,3754,120,2,32.569668,74.084245
973,JALALPUR JATTAN ROAD GUJRAT Pakistan #973,Arterial,3515,30,3,32.5648686,74.0786705
974,GT ROAD GUJRAT Pakistan #974,Residential,3041,30,4,32.5784194,74.0749322
975,VILLAGE LINK ROAD GUJRAT Pakistan #975,Rural,2620,120,6,32.5826186,74.0784785
976,DINGA ROAD GUJRAT Pakistan #976,Highway,1918,30,5,32.5588588,74.0433025
977,CHOWK AREA GUJRAT Pakistan #977,Highway,2601,60,1,32.5387754,74.0032122
978,NEAR SCHOOL ROAD GUJRAT Pakistan #978,Residential,2214,60,6,32.6201744,74.0789545
979,UNIVERSITY ROAD GUJRAT Pakistan #979,Residential,1854,30,2,32.5954494,74.0446875
980,GT ROAD GUJRAT Pakistan #980,Rural,3272,40,1,32.6377717,74.1958929
981,BHIMBER ROAD GUJRAT Pakistan #981,Arterial,1926,60,5,32.5672333,74.0709434
982,CHOWK AREA GUJRAT Pakistan #982,Highway,1572,40,2,32.5380958,74.0986918
983,NEAR SCHOOL ROAD GUJRAT Pakistan #983,Arterial,1177,30,2,32.5588588,74.0433025
984,NEAR BUS STOP GUJRAT Pakistan #984,Arterial,1360,100,3,32.5625405,74.0797928
985,NEAR BUS STOP GUJRAT Pakistan #985,Rural,809,40,4,32.5881048,74.0524328
986,NEAR SCHOOL ROAD GUJRAT Pakistan #986,Rural,4033,50,1,32.5530847,74.0877156
987,DINGA ROAD GUJRAT Pakistan #987,Residential,5171,30,1,32.5712012,74.0750116
988,NEAR PSO PUMP GUJRAT Pakistan #988,Arterial,2524,100,6,32.5695355,74.085118
989,CHOWK AREA GUJRAT Pakistan #989,Arterial,2493,100,1,32.6301772,74.1837645
990,JALALPUR JATTAN ROAD GUJRAT Pakistan #990,Rural,2607,50,5,32.6008428,74.0491065
991,UNIVERSITY ROAD GUJRAT Pakistan #991,Highway,3447,40,6,32.6097075,74.0787731
992,SERVICE ROAD GUJRAT Pakistan #992,Arterial,3103,120,1,32.6066096,74.0772164
993,GT ROAD GUJRAT Pakistan #993,Rural,5161,30,1,32.5588588,74.0433025
994,NEAR MARKET GUJRAT Pakistan #994,Arterial,1856,30,5,32.5588588,74.0433025
995,GT ROAD GUJRAT Pakistan #995,Highway,3078,30,4,32.6057903,74.0872892
996,GT ROAD GUJRAT Pakistan #996,Highway,2985,40,3,32.5690734,74.072083
997,DINGA ROAD GUJRAT Pakistan #997,Rural,4489,80,1,32.6468571,74.2119253
998,JALALPUR JATTAN ROAD GUJRAT Pakistan #998,Rural,3656,30,6,32.5730725,74.1005044
999,JALALPUR JATTAN ROAD GUJRAT Pakistan #999,Arterial,4390,60,5,32.5587491,74.0429687
1000,JALALPUR JATTAN ROAD GUJRAT Pakistan #1000,Residential,5133,40,6,32.5632439,74.0406361
1001,GT ROAD GUJRAT Pakistan #1001,Arterial,1029,40,5,32.5588588,74.0433025
1002,SERVICE ROAD GUJRAT Pakistan #1002,Highway,3237,80,1,32.5759067,74.0821409
1003,DINGA ROAD GUJRAT Pakistan #1003,Highway,1089,100,2,32.7222379,74.0222529
1004,UNIVERSITY ROAD GUJRAT Pakistan #1004,Rural,3991,80,3,32.50873,74.0072379
1005,SERVICE ROAD GUJRAT Pakistan #1005,Highway,4130,120,1,32.5585282,74.0741634
1006,BHIMBER ROAD GUJRAT Pakistan #1006,Residential,826,50,4,32.634025,74.0073869
1007,NEAR PSO PUMP GUJRAT Pakistan #1007,Rural,1655,50,3,32.6209735,74.0788898
1008,NEAR PSO PUMP GUJRAT Pakistan #1008,Residential,3195,120,3,32.6377717,74.1958929
1009,NEAR MARKET GUJRAT Pakistan #1009,Highway,1512,100,5,32.6115803,74.1505802
1010,JALALPUR JATTAN ROAD GUJRAT Pakistan #1010,Arterial,1143,40,6,32.49162,74.0894328
1011,DINGA ROAD GUJRAT Pakistan #1011,Rural,1339,60,2,32.5925382,74.0468811
1012,NEAR PSO PUMP GUJRAT Pakistan #1012,Residential,748,120,3,32.5754138,74.0638213
1013,NEAR MARKET GUJRAT Pakistan #1013,Residential,2000,80,6,32.5655796,74.1344339
1014,GT ROAD GUJRAT Pakistan #1014,Arterial,4776,120,5,32.6406782,74.0055785
1015,VILLAGE LINK ROAD GUJRAT Pakistan #1015,Residential,3025,40,5,32.610901,74.0792428
1016,CHOWK AREA GUJRAT Pakistan #1016,Arterial,2059,40,2,32.5927722,74.1157376
1017,NEAR SCHOOL ROAD GUJRAT Pakistan #1017,Residential,3877,40,5,32.5682173,74.0685742
1018,VILLAGE LINK ROAD GUJRAT Pakistan #1018,Residential,696,50,1,32.6480365,74.2120629
1019,NEAR BUS STOP GUJRAT Pakistan #1019,Highway,2677,80,4,32.5640348,74.0575465
1020,CHOWK AREA GUJRAT Pakistan #1020,Arterial,4425,30,3,32.5552696,74.0742096
1021,NEAR SCHOOL ROAD GUJRAT Pakistan #1021,Residential,4350,80,5,32.5897727,74.0514371
1022,NEAR MARKET GUJRAT Pakistan #1022,Residential,4085,120,4,32.5624664,74.0644355
1023,JALALPUR JATTAN ROAD GUJRAT Pakistan #1023,Arterial,1814,100,3,32.5274217,74.0990361
1024,SERVICE ROAD GUJRAT Pakistan #1024,Residential,1085,40,1,32.564234,74.120849
1025,BHIMBER ROAD GUJRAT Pakistan #1025,Highway,5183,50,6,32.5690734,74.072083
1026,BHIMBER ROAD GUJRAT Pakistan #1026,Residential,4592,120,5,32.5927722,74.1157376
1027,VILLAGE LINK ROAD GUJRAT Pakistan #1027,Arterial,4688,50,2,32.5629273,74.1606956
1028,NEAR MARKET GUJRAT Pakistan #1028,Arterial,3227,100,3,32.5690734,74.072083
1029,JALALPUR JATTAN ROAD GUJRAT Pakistan #1029,Arterial,4206,30,1,32.5756052,74.0951516
1030,SERVICE ROAD GUJRAT Pakistan #1030,Highway,5022,60,1,32.6039016,74.137435
1031,BHIMBER ROAD GUJRAT Pakistan #1031,Arterial,2607,30,1,32.5675707,74.0674474
1032,NEAR SCHOOL ROAD GUJRAT Pakistan #1032,Arterial,3742,120,6,32.5854596,74.1017747
1033,DINGA ROAD GUJRAT Pakistan #1033,Arterial,3097,100,6,32.5730725,74.1005044
1034,JALALPUR JATTAN ROAD GUJRAT Pakistan #1034,Arterial,1004,60,3,32.5927722,74.1157376
1035,NEAR PSO PUMP GUJRAT Pakistan #1035,Residential,1047,120,6,32.5691158,74.0708626
1036,SERVICE ROAD GUJRAT Pakistan #1036,Arterial,825,60,1,32.5730725,74.1005044
1037,BHIMBER ROAD GUJRAT Pakistan #1037,Residential,3617,50,2,32.5632546,74.100451
1038,NEAR PSO PUMP GUJRAT Pakistan #1038,Highway,4426,100,6,32.5714932,74.0703673
1039,DINGA ROAD GUJRAT Pakistan #1039,Highway,1598,100,6,32.5628494,74.0537739
1040,GT ROAD GUJRAT Pakistan #1040,Arterial,4472,100,2,32.5588588,74.0433025
1041,CHOWK AREA GUJRAT Pakistan #1041,Residential,3843,80,4,32.5637966,74.0405151
1042,CHOWK AREA GUJRAT Pakistan #1042,Highway,2920,40,4,32.5624664,74.0644355
1043,UNIVERSITY ROAD GUJRAT Pakistan #1043,Rural,3141,60,3,32.5730725,74.1005044
1044,UNIVERSITY ROAD GUJRAT Pakistan #1044,Rural,3920,50,2,32.5588588,74.0433025
1045,NEAR PSO PUMP GUJRAT Pakistan #1045,Highway,3878,30,6,32.5925382,74.0468811
1046,NEAR SCHOOL ROAD GUJRAT Pakistan #1046,Rural,1787,30,6,32.57026,74.084046
1047,SERVICE ROAD GUJRAT Pakistan #1047,Highway,4921,100,3,32.5791625,74.0826263
1048,JALALPUR JATTAN ROAD GUJRAT Pakistan #1048,Highway,1092,50,6,32.6098864,74.0498408
1049,NEAR BUS STOP GUJRAT Pakistan #1049,Residential,3684,30,6,32.5730725,74.1005044
1050,JALALPUR JATTAN ROAD GUJRAT Pakistan #1050,Rural,2560,80,1,32.5840384,74.090441
1051,UNIVERSITY ROAD GUJRAT Pakistan #1051,Residential,2784,100,5,32.5751251,74.080493
1052,SERVICE ROAD GUJRAT Pakistan #1052,Residential,899,100,4,32.5675134,74.1107824
1053,CHOWK AREA GUJRAT Pakistan #1053,Rural,5061,30,5,32.6039016,74.137435
1054,UNIVERSITY ROAD GUJRAT Pakistan #1054,Residential,785,80,3,32.5624664,74.0644355
1055,BHIMBER ROAD GUJRAT Pakistan #1055,Highway,4011,100,6,32.6196651,74.0809398
1056,NEAR BUS STOP GUJRAT Pakistan #1056,Residential,1893,120,5,32.5958119,74.0289106
1057,CHOWK AREA GUJRAT Pakistan #1057,Rural,4925,100,5,32.5942014,74.0798162
1058,GT ROAD GUJRAT Pakistan #1058,Residential,4281,80,5,32.4793759,74.0917788
1059,GT ROAD GUJRAT Pakistan #1059,Residential,1402,100,3,32.5546681,74.073954
1060,NEAR BUS STOP GUJRAT Pakistan #1060,Highway,815,100,3,32.5730725,74.1005044
1061,NEAR SCHOOL ROAD GUJRAT Pakistan #1061,Highway,2396,40,4,32.6039016,74.137435
1062,UNIVERSITY ROAD GUJRAT Pakistan #1062,Highway,700,60,1,32.5730725,74.1005044
1063,BHIMBER ROAD GUJRAT Pakistan #1063,Rural,3435,30,5,32.5730725,74.1005044
1064,VILLAGE LINK ROAD GUJRAT Pakistan #1064,Highway,3894,60,1,32.5730725,74.1005044
1065,CHOWK AREA GUJRAT Pakistan #1065,Arterial,2918,30,5,32.5655575,74.0878892
1066,BHIMBER ROAD GUJRAT Pakistan #1066,Arterial,674,50,2,32.563397,74.0688774
1067,NEAR SCHOOL ROAD GUJRAT Pakistan #1067,Highway,1798,30,5,32.5964724,74.1430807
1068,VILLAGE LINK ROAD GUJRAT Pakistan #1068,Residential,1133,60,3,32.6098864,74.0498408
1069,BHIMBER ROAD GUJRAT Pakistan #1069,Arterial,2021,120,4,32.5723405,74.0816796
1070,SERVICE ROAD GUJRAT Pakistan #1070,Arterial,1209,40,3,32.56632,74.0703689
1071,NEAR SCHOOL ROAD GUJRAT Pakistan #1071,Highway,3751,120,6,32.5809666,74.0769405
1072,VILLAGE LINK ROAD GUJRAT Pakistan #1072,Highway,3676,80,5,32.4793759,74.0917788
1073,NEAR BUS STOP GUJRAT Pakistan #1073,Residential,2884,80,3,32.5655575,74.0878892
1074,CHOWK AREA GUJRAT Pakistan #1074,Arterial,4636,40,2,32.6319614,74.0369892
1075,JALALPUR JATTAN ROAD GUJRAT Pakistan #1075,Residential,954,30,2,32.5730725,74.1005044
1076,NEAR PSO PUMP GUJRAT Pakistan #1076,Arterial,4716,100,6,32.626954,74.175865
1077,CHOWK AREA GUJRAT Pakistan #1077,Residential,5157,30,5,32.5730725,74.1005044
1078,GT ROAD GUJRAT Pakistan #1078,Residential,2026,100,1,32.6916471,74.1286799
1079,BHIMBER ROAD GUJRAT Pakistan #1079,Residential,3449,100,2,32.5927722,74.1157376
1080,VILLAGE LINK ROAD GUJRAT Pakistan #1080,Residential,3507,40,2,32.5693796,74.073685
1081,JALALPUR JATTAN ROAD GUJRAT Pakistan #1081,Residential,2360,50,2,32.5888865,74.0545741
1082,NEAR MARKET GUJRAT Pakistan #1082,Residential,2897,60,1,32.5588769,74.0574324
1083,CHOWK AREA GUJRAT Pakistan #1083,Residential,2022,40,1,32.5588588,74.0433025
1084,DINGA ROAD GUJRAT Pakistan #1084,Highway,1315,60,2,32.5587491,74.0429687
1085,JALALPUR JATTAN ROAD GUJRAT Pakistan #1085,Residential,1311,50,1,32.5730725,74.1005044
1086,NEAR SCHOOL ROAD GUJRAT Pakistan #1086,Highway,2931,30,4,32.5392192,74.0916604
1087,UNIVERSITY ROAD GUJRAT Pakistan #1087,Residential,4796,50,1,32.5485405,74.0149784
1088,NEAR SCHOOL ROAD GUJRAT Pakistan #1088,Arterial,2736,40,2,32.6150889,74.0253693
1089,UNIVERSITY ROAD GUJRAT Pakistan #1089,Highway,2064,50,4,32.6383713,74.0055909
1090,UNIVERSITY ROAD GUJRAT Pakistan #1090,Highway,2039,100,3,32.583994,74.1257065
1091,NEAR MARKET GUJRAT Pakistan #1091,Residential,4031,40,3,32.6016715,74.0778492
1092,NEAR PSO PUMP GUJRAT Pakistan #1092,Arterial,2494,50,3,32.6008428,74.0491065
1093,NEAR PSO PUMP GUJRAT Pakistan #1093,Residential,4279,40,4,32.563397,74.0688774
1094,BHIMBER ROAD GUJRAT Pakistan #1094,Rural,2690,30,6,32.5730725,74.1005044
1095,NEAR MARKET GUJRAT Pakistan #1095,Residential,1515,60,5,32.5819698,74.0469034
1096,UNIVERSITY ROAD GUJRAT Pakistan #1096,Residential,4499,40,1,32.6284408,74.2332458
1097,NEAR BUS STOP GUJRAT Pakistan #1097,Rural,1418,120,4,32.5828941,74.1087452
1098,CHOWK AREA GUJRAT Pakistan #1098,Highway,1963,50,4,32.5730725,74.1005044
1099,JALALPUR JATTAN ROAD GUJRAT Pakistan #1099,Residential,1938,80,3,32.5862974,74.0567177
1100,CHOWK AREA GUJRAT Pakistan #1100,Residential,2873,30,4,32.5723863,74.0683129
1101,GT ROAD GUJRAT Pakistan #1101,Arterial,2798,60,4,32.6173756,74.0792009
1102,NEAR MARKET GUJRAT Pakistan #1102,Arterial,2572,60,1,32.558159,74.0575935
1103,NEAR MARKET GUJRAT Pakistan #1103,Residential,4843,80,1,32.5624664,74.0644355
1104,UNIVERSITY ROAD GUJRAT Pakistan #1104,Highway,2252,50,4,32.5604448,74.0472217
1105,DINGA ROAD GUJRAT Pakistan #1105,Residential,1602,60,2,32.5871919,74.0600867
1106,JALALPUR JATTAN ROAD GUJRAT Pakistan #1106,Rural,2846,100,4,32.5588588,74.0433025
1107,CHOWK AREA GUJRAT Pakistan #1107,Residential,2860,30,3,32.5932314,74.0440804
1108,SERVICE ROAD GUJRAT Pakistan #1108,Arterial,1869,80,1,32.5280677,74.0930441
1109,BHIMBER ROAD GUJRAT Pakistan #1109,Arterial,2518,40,2,32.5832368,74.0978671
1110,VILLAGE LINK ROAD GUJRAT Pakistan #1110,Residential,3333,30,1,32.5640348,74.0575465
1111,DINGA ROAD GUJRAT Pakistan #1111,Arterial,1543,100,3,32.5860535,74.0793796
1112,NEAR BUS STOP GUJRAT Pakistan #1112,Rural,988,40,6,32.5693796,74.073685
1113,GT ROAD GUJRAT Pakistan #1113,Residential,1456,50,1,32.5730725,74.1005044
1114,NEAR SCHOOL ROAD GUJRAT Pakistan #1114,Residential,2280,60,6,32.5730725,74.1005044
1115,NEAR BUS STOP GUJRAT Pakistan #1115,Rural,3172,100,6,32.5860535,74.0793796
1116,GT ROAD GUJRAT Pakistan #1116,Residential,4585,100,4,32.5783962,74.061659
1117,NEAR BUS STOP GUJRAT Pakistan #1117,Arterial,4013,50,6,32.6019673,74.1347616
1118,GT ROAD GUJRAT Pakistan #1118,Arterial,4543,40,2,32.5690961,74.0883905
1119,NEAR SCHOOL ROAD GUJRAT Pakistan #1119,Rural,4831,60,2,32.5625298,74.0796826
1120,NEAR PSO PUMP GUJRAT Pakistan #1120,Highway,3009,60,1,32.5767887,74.0683222
1121,JALALPUR JATTAN ROAD GUJRAT Pakistan #1121,Residential,1320,60,5,32.5723405,74.0816796
1122,UNIVERSITY ROAD GUJRAT Pakistan #1122,Rural,1454,100,4,32.5588588,74.0433025
1123,GT ROAD GUJRAT Pakistan #1123,Residential,937,50,5,32.5797538,74.0984219
1124,CHOWK AREA GUJRAT Pakistan #1124,Rural,3385,60,6,32.5499292,74.0704819
1125,DINGA ROAD GUJRAT Pakistan #1125,Arterial,4452,120,3,32.5757806,74.0749365
1126,NEAR SCHOOL ROAD GUJRAT Pakistan #1126,Arterial,3519,80,5,32.549834,74.0705588
1127,NEAR PSO PUMP GUJRAT Pakistan #1127,Rural,1797,100,1,32.5640747,74.0774111
1128,NEAR BUS STOP GUJRAT Pakistan #1128,Residential,1049,80,5,32.5897727,74.0514371
1129,NEAR MARKET GUJRAT Pakistan #1129,Highway,2918,80,5,32.5756052,74.0951516
1130,SERVICE ROAD GUJRAT Pakistan #1130,Rural,4070,100,4,32.5712094,74.0781113
1131,CHOWK AREA GUJRAT Pakistan #1131,Residential,1573,40,5,32.5119798,74.0329499
1132,BHIMBER ROAD GUJRAT Pakistan #1132,Highway,4423,120,5,32.563397,74.0688774
1133,VILLAGE LINK ROAD GUJRAT Pakistan #1133,Residential,2215,40,4,32.5771447,74.0799177
1134,JALALPUR JATTAN ROAD GUJRAT Pakistan #1134,Highway,2264,30,3,32.5712012,74.0750116
1135,NEAR PSO PUMP GUJRAT Pakistan #1135,Residential,988,120,4,32.6150889,74.0253693
1136,CHOWK AREA GUJRAT Pakistan #1136,Highway,1491,40,2,32.5625298,74.0796826
1137,NEAR SCHOOL ROAD GUJRAT Pakistan #1137,Highway,3482,80,5,32.5757806,74.0749365
1138,CHOWK AREA GUJRAT Pakistan #1138,Highway,4938,50,5,32.514337,74.0947508
1139,GT ROAD GUJRAT Pakistan #1139,Arterial,4578,120,6,32.524964,74.093779
1140,SERVICE ROAD GUJRAT Pakistan #1140,Highway,1439,80,5,32.5914535,74.075601
1141,NEAR PSO PUMP GUJRAT Pakistan #1141,Residential,2080,80,4,32.5499292,74.0704819
1142,BHIMBER ROAD GUJRAT Pakistan #1142,Residential,2560,80,1,32.8439466,74.2375303
1143,JALALPUR JATTAN ROAD GUJRAT Pakistan #1143,Rural,3548,100,5,32.64054,74.0038788
1144,NEAR BUS STOP GUJRAT Pakistan #1144,Highway,1539,120,6,32.5853175,74.0818244
1145,NEAR MARKET GUJRAT Pakistan #1145,Residential,4862,120,1,32.5499292,74.0704819
1146,NEAR MARKET GUJRAT Pakistan #1146,Arterial,4292,120,3,32.5764225,74.0692422
1147,DINGA ROAD GUJRAT Pakistan #1147,Arterial,1783,100,1,32.5690961,74.0883905
1148,NEAR PSO PUMP GUJRAT Pakistan #1148,Residential,3201,40,3,32.5925382,74.0468811
1149,NEAR MARKET GUJRAT Pakistan #1149,Rural,2029,80,1,32.5588588,74.0433025
1150,UNIVERSITY ROAD GUJRAT Pakistan #1150,Residential,3972,60,5,32.583994,74.1257065
1151,VILLAGE LINK ROAD GUJRAT Pakistan #1151,Residential,886,30,3,32.49162,74.0894328
1152,NEAR MARKET GUJRAT Pakistan #1152,Arterial,1925,120,2,32.5652239,74.0618346
1153,GT ROAD GUJRAT Pakistan #1153,Highway,4310,30,2,32.8410738,74.1093141
1154,DINGA ROAD GUJRAT Pakistan #1154,Residential,5042,40,4,32.5604448,74.0472217
1155,CHOWK AREA GUJRAT Pakistan #1155,Residential,1826,40,2,32.5730725,74.1005044
1156,NEAR BUS STOP GUJRAT Pakistan #1156,Arterial,4276,30,1,32.5380958,74.0986918
1157,CHOWK AREA GUJRAT Pakistan #1157,Arterial,1504,50,1,32.586973,74.0617
1158,NEAR PSO PUMP GUJRAT Pakistan #1158,Arterial,5086,100,2,32.5835803,74.1216795
1159,NEAR SCHOOL ROAD GUJRAT Pakistan #1159,Highway,4663,40,5,32.5320365,74.0982261
1160,VILLAGE LINK ROAD GUJRAT Pakistan #1160,Highway,650,50,2,32.5730725,74.1005044
1161,SERVICE ROAD GUJRAT Pakistan #1161,Arterial,3193,40,5,32.5730725,74.1005044
1162,GT ROAD GUJRAT Pakistan #1162,Highway,1721,120,2,32.6035962,74.0491065
1163,UNIVERSITY ROAD GUJRAT Pakistan #1163,Rural,3108,100,1,32.558159,74.0575935
1164,NEAR SCHOOL ROAD GUJRAT Pakistan #1164,Highway,3760,100,1,32.6407156,74.1666998
1165,NEAR SCHOOL ROAD GUJRAT Pakistan #1165,Arterial,2106,40,6,32.5730725,74.1005044
1166,GT ROAD GUJRAT Pakistan #1166,Highway,3058,50,4,32.5280677,74.0930441
1167,CHOWK AREA GUJRAT Pakistan #1167,Highway,900,120,5,32.5730725,74.1005044
1168,NEAR SCHOOL ROAD GUJRAT Pakistan #1168,Rural,4576,120,4,32.5730725,74.1005044
1169,SERVICE ROAD GUJRAT Pakistan #1169,Arterial,2276,100,3,32.5647,74.0541
1170,SERVICE ROAD GUJRAT Pakistan #1170,Rural,4729,50,4,32.5710129,74.0809996
1171,VILLAGE LINK ROAD GUJRAT Pakistan #1171,Arterial,1915,60,6,32.5730725,74.1005044
1172,UNIVERSITY ROAD GUJRAT Pakistan #1172,Arterial,1605,50,5,32.5467004,74.0689344
1173,DINGA ROAD GUJRAT Pakistan #1173,Highway,1551,50,2,32.5724557,74.0686943
1174,DINGA ROAD GUJRAT Pakistan #1174,Residential,2759,120,2,32.5764225,74.0692422
1175,VILLAGE LINK ROAD GUJRAT Pakistan #1175,Residential,710,100,3,32.5819698,74.0469034
1176,VILLAGE LINK ROAD GUJRAT Pakistan #1176,Rural,885,60,6,32.49162,74.0894328
1177,GT ROAD GUJRAT Pakistan #1177,Highway,1518,30,2,32.402676,74.1227512
1178,NEAR BUS STOP GUJRAT Pakistan #1178,Residential,4007,30,2,32.5862974,74.0567177
1179,NEAR BUS STOP GUJRAT Pakistan #1179,Highway,3374,40,4,32.5770468,74.080525
1180,NEAR BUS STOP GUJRAT Pakistan #1180,Highway,4352,60,2,32.5730725,74.1005044
1181,SERVICE ROAD GUJRAT Pakistan #1181,Highway,1290,100,5,32.6088588,74.0880136
1182,NEAR BUS STOP GUJRAT Pakistan #1182,Arterial,3687,30,5,32.5720983,74.0844027
1183,GT ROAD GUJRAT Pakistan #1183,Residential,2919,40,4,32.6301772,74.1837645
1184,NEAR PSO PUMP GUJRAT Pakistan #1184,Arterial,4173,80,6,32.5519382,74.0755415
1185,SERVICE ROAD GUJRAT Pakistan #1185,Residential,3973,30,5,32.6480365,74.2120629
1186,NEAR BUS STOP GUJRAT Pakistan #1186,Arterial,3236,120,2,32.5702536,74.0672402
1187,SERVICE ROAD GUJRAT Pakistan #1187,Arterial,3451,50,4,32.5789074,74.0752292
1188,NEAR SCHOOL ROAD GUJRAT Pakistan #1188,Residential,1213,60,2,32.5843296,74.0799613
1189,BHIMBER ROAD GUJRAT Pakistan #1189,Rural,1507,50,5,32.5752778,74.0711111
1190,NEAR PSO PUMP GUJRAT Pakistan #1190,Highway,2529,40,3,32.5958119,74.0289106
1191,BHIMBER ROAD GUJRAT Pakistan #1191,Arterial,929,60,2,32.5588588,74.0433025
1192,GT ROAD GUJRAT Pakistan #1192,Arterial,1158,60,6,32.5588588,74.0433025
1193,NEAR BUS STOP GUJRAT Pakistan #1193,Arterial,2040,60,2,32.4950197,74.0796864
1194,BHIMBER ROAD GUJRAT Pakistan #1194,Arterial,3445,60,6,32.5377219,74.0623238
1195,DINGA ROAD GUJRAT Pakistan #1195,Highway,3702,60,1,32.56129,74.07629
1196,NEAR SCHOOL ROAD GUJRAT Pakistan #1196,Rural,4594,40,1,32.5615005,74.0806009
1197,SERVICE ROAD GUJRAT Pakistan #1197,Arterial,1993,60,4,32.6272367,74.1787933
1198,NEAR BUS STOP GUJRAT Pakistan #1198,Arterial,1379,60,1,32.5715793,74.0844874
1199,VILLAGE LINK ROAD GUJRAT Pakistan #1199,Residential,3804,30,5,32.589229,74.0522072
1200,DINGA ROAD GUJRAT Pakistan #1200,Arterial,4690,100,2,32.6001981,74.0406897
1201,UNIVERSITY ROAD GUJRAT Pakistan #1201,Arterial,3456,40,5,32.5588588,74.0433025
1202,UNIVERSITY ROAD GUJRAT Pakistan #1202,Highway,1248,120,3,32.626954,74.175865
1203,NEAR SCHOOL ROAD GUJRAT Pakistan #1203,Arterial,4403,50,2,32.5625298,74.0796826
1204,DINGA ROAD GUJRAT Pakistan #1204,Arterial,4053,80,1,32.5730725,74.1005044
1205,CHOWK AREA GUJRAT Pakistan #1205,Highway,5099,60,2,32.5624664,74.0644355
1206,NEAR BUS STOP GUJRAT Pakistan #1206,Residential,1237,80,4,32.5623464,74.0796358
1207,BHIMBER ROAD GUJRAT Pakistan #1207,Residential,917,50,3,32.612716,74.02938
1208,NEAR SCHOOL ROAD GUJRAT Pakistan #1208,Residential,2932,40,5,32.583662,74.1078459
1209,NEAR PSO PUMP GUJRAT Pakistan #1209,Rural,2702,120,2,32.5765649,74.0809903
1210,DINGA ROAD GUJRAT Pakistan #1210,Arterial,2604,30,4,32.5652239,74.0618346
1211,NEAR SCHOOL ROAD GUJRAT Pakistan #1211,Rural,2639,80,6,32.5587491,74.0429687
1212,NEAR SCHOOL ROAD GUJRAT Pakistan #1212,Rural,3246,30,4,32.6222323,74.0601215
1213,GT ROAD GUJRAT Pakistan #1213,Residential,681,120,5,32.5588588,74.0433025
1214,JALALPUR JATTAN ROAD GUJRAT Pakistan #1214,Residential,1635,30,6,32.6150889,74.0253693
1215,GT ROAD GUJRAT Pakistan #1215,Highway,2151,50,1,32.6653915,74.0796702
1216,NEAR SCHOOL ROAD GUJRAT Pakistan #1216,Arterial,2149,50,6,32.5693796,74.073685
1217,JALALPUR JATTAN ROAD GUJRAT Pakistan #1217,Residential,4648,60,5,32.5689838,74.0791744
1218,CHOWK AREA GUJRAT Pakistan #1218,Arterial,2348,80,2,32.6165966,74.0256177
1219,UNIVERSITY ROAD GUJRAT Pakistan #1219,Highway,4126,120,3,32.5730725,74.1005044
1220,VILLAGE LINK ROAD GUJRAT Pakistan #1220,Residential,1917,120,6,32.6284408,74.2332458
